{"type":"Topology","arcs":[],"objects":{"map":{"type":"GeometryCollection","geometries":[{"type":"Point","coordinates":[-0.141966,51.5153055],"properties":{"osm_id":"107333","name":"Oxford Circus","barrier":null,"highway":"crossing","ref":null,"address":null,"is_in":null,"place":null,"man_made":null,"other_tags":"\"crossing\"=>\"traffic_signals\",\"crossing_ref\"=>\"pedestrian_scramble\",\"junction\"=>\"crossroads\""}},{"type":"Point","coordinates":[-0.1283895,51.511322],"properties":{"osm_id":"107790","name":null,"barrier":null,"highway":"traffic_signals","ref":null,"address":null,"is_in":null,"place":null,"man_made":null,"other_tags":"\"randomjunk_bot\"=>\"reverted edit by FilipeOliveira on 2008-11-26T17:23:44+00:00\""}},{"type":"Point","coordinates":[-0.1290796,51.513281],"properties":{"osm_id":"107792","name":"Cambridge Circus","barrier":null,"highway":"crossing","ref":null,"address":null,"is_in":null,"place":null,"man_made":null,"other_tags":"\"crossing\"=>\"traffic_signals\",\"crossing_ref\"=>\"pelican\",\"junction\"=>\"crossroads\",\"wikidata\"=>\"Q2934700\",\"wikipedia\"=>\"en:Cambridge Circus, London\""}},{"type":"Point","coordinates":[-0.129931,51.5127816],"properties":{"osm_id":"107805","name":null,"barrier":null,"highway":null,"ref":null,"address":null,"is_in":null,"place":null,"man_made":null,"other_tags":null}},{"type":"Point","coordinates":[-0.1330266,51.5114964],"properties":{"osm_id":"107809","name":null,"barrier":null,"highway":"traffic_signals","ref":null,"address":null,"is_in":null,"place":null,"man_made":null,"other_tags":null}},{"type":"Point","coordinates":[-0.1339402,51.5106947],"properties":{"osm_id":"107813","name":null,"barrier":null,"highway":"traffic_signals","ref":null,"address":null,"is_in":null,"place":null,"man_made":null,"other_tags":"\"crossing\"=>\"traffic_signals\",\"crossing_ref\"=>\"pelican\""}},{"type":"Point","coordinates":[-0.1355377,51.5107007],"properties":{"osm_id":"107820","name":null,"barrier":null,"highway":null,"ref":null,"address":null,"is_in":null,"place":null,"man_made":null,"other_tags":"\"surface\"=>\"paving_stones\",\"traffic_calming\"=>\"table\""}},{"type":"Point","coordinates":[-0.1303768,51.5164132],"properties":{"osm_id":"107824","name":"St Giles's Circus","barrier":null,"highway":null,"ref":null,"address":null,"is_in":null,"place":null,"man_made":null,"other_tags":"\"junction\"=>\"crossroads\",\"junction_ref\"=>\"St Giles's Circus\""}},{"type":"Point","coordinates":[-0.1393138,51.5156128],"properties":{"osm_id":"108053","name":null,"barrier":null,"highway":"crossing","ref":null,"address":null,"is_in":null,"place":null,"man_made":null,"other_tags":"\"crossing\"=>\"uncontrolled\""}},{"type":"Point","coordinates":[-0.1415166,51.5139707],"properties":{"osm_id":"108054","name":null,"barrier":null,"highway":"traffic_signals","ref":null,"address":null,"is_in":null,"place":null,"man_made":null,"other_tags":null}},{"type":"Point","coordinates":[-0.1373771,51.5105071],"properties":{"osm_id":"108059","name":null,"barrier":null,"highway":null,"ref":null,"address":null,"is_in":null,"place":null,"man_made":null,"other_tags":"\"randomjunk_bot\"=>\"reverted edit by FilipeOliveira on 2008-11-24T14:57:12+00:00\""}},{"type":"Point","coordinates":[-0.136261,51.5134685],"properties":{"osm_id":"108073","name":null,"barrier":null,"highway":null,"ref":null,"address":null,"is_in":null,"place":null,"man_made":null,"other_tags":"\"randomjunk_bot\"=>\"reverted edit by FilipeOliveira on 2008-11-24T15:02:35+00:00\""}},{"type":"Point","coordinates":[-0.1361711,51.5098718],"properties":{"osm_id":"108263","name":null,"barrier":null,"highway":"traffic_signals","ref":null,"address":null,"is_in":null,"place":null,"man_made":null,"other_tags":null}},{"type":"Point","coordinates":[-0.1411994,51.5166636],"properties":{"osm_id":"255562","name":null,"barrier":null,"highway":"traffic_signals","ref":null,"address":null,"is_in":null,"place":null,"man_made":null,"other_tags":null}},{"type":"Point","coordinates":[-0.1398643,51.5168999],"properties":{"osm_id":"255563","name":null,"barrier":null,"highway":null,"ref":null,"address":null,"is_in":null,"place":null,"man_made":null,"other_tags":"\"traffic_calming\"=>\"table\""}},{"type":"Point","coordinates":[-0.1323773,51.511814],"properties":{"osm_id":"9512924","name":null,"barrier":null,"highway":"traffic_signals","ref":null,"address":null,"is_in":null,"place":null,"man_made":null,"other_tags":"\"crossing\"=>\"traffic_signals\""}},{"type":"Point","coordinates":[-0.1373585,51.5167429],"properties":{"osm_id":"9521006","name":null,"barrier":null,"highway":"crossing","ref":null,"address":null,"is_in":null,"place":null,"man_made":null,"other_tags":"\"crossing\"=>\"traffic_signals\",\"crossing_ref\"=>\"pelican\""}},{"type":"Point","coordinates":[-0.1367655,51.5158467],"properties":{"osm_id":"9521029","name":null,"barrier":null,"highway":"traffic_signals","ref":null,"address":null,"is_in":null,"place":null,"man_made":null,"other_tags":null}},{"type":"Point","coordinates":[-0.1391714,51.5180469],"properties":{"osm_id":"9521034","name":null,"barrier":null,"highway":"traffic_signals","ref":null,"address":null,"is_in":null,"place":null,"man_made":null,"other_tags":null}},{"type":"Point","coordinates":[-0.1346358,51.5160593],"properties":{"osm_id":"9521035","name":null,"barrier":null,"highway":"traffic_signals","ref":null,"address":null,"is_in":null,"place":null,"man_made":null,"other_tags":null}},{"type":"Point","coordinates":[-0.1302418,51.5156503],"properties":{"osm_id":"21508069","name":"Tottenham Court Road","barrier":null,"highway":null,"ref":"fixme_2","address":null,"is_in":null,"place":null,"man_made":null,"other_tags":"\"line\"=>\"Northern\",\"network\"=>\"London Underground\",\"public_transport\"=>\"stop_position\",\"subway\"=>\"yes\",\"wikidata\"=>\"Q1431094\",\"wikimedia_commons\"=>\"Category:Tottenham_Court_Road_tube_station\",\"wikipedia\"=>\"en:Tottenham Court Road tube station\""}},{"type":"Point","coordinates":[-0.1329745,51.5132942],"properties":{"osm_id":"21665114","name":null,"barrier":"bollard","highway":null,"ref":null,"address":null,"is_in":null,"place":null,"man_made":null,"other_tags":"\"bicycle\"=>\"yes\",\"foot\"=>\"yes\""}},{"type":"Point","coordinates":[-0.128546,51.5155956],"properties":{"osm_id":"21665131","name":null,"barrier":null,"highway":"traffic_signals","ref":null,"address":null,"is_in":null,"place":null,"man_made":null,"other_tags":null}},{"type":"Point","coordinates":[-0.1294628,51.5165186],"properties":{"osm_id":"21665587","name":null,"barrier":null,"highway":"traffic_signals","ref":null,"address":null,"is_in":null,"place":null,"man_made":null,"other_tags":null}},{"type":"Point","coordinates":[-0.1299519,51.514996],"properties":{"osm_id":"21665589","name":null,"barrier":null,"highway":"traffic_signals","ref":null,"address":null,"is_in":null,"place":null,"man_made":null,"other_tags":null}},{"type":"Point","coordinates":[-0.1345994,51.5160104],"properties":{"osm_id":"21665946","name":null,"barrier":"gate","highway":null,"ref":null,"address":null,"is_in":null,"place":null,"man_made":null,"other_tags":null}},{"type":"Point","coordinates":[-0.1294863,51.5165146],"properties":{"osm_id":"25375955","name":null,"barrier":null,"highway":"traffic_signals","ref":null,"address":null,"is_in":null,"place":null,"man_made":null,"other_tags":null}},{"type":"Point","coordinates":[-0.1420715,51.5152938],"properties":{"osm_id":"25496587","name":"Oxford Circus","barrier":null,"highway":"crossing","ref":null,"address":null,"is_in":null,"place":null,"man_made":null,"other_tags":"\"crossing\"=>\"traffic_signals\",\"crossing_ref\"=>\"pedestrian_scramble\",\"junction\"=>\"crossroads\""}},{"type":"Point","coordinates":[-0.1288041,51.5149717],"properties":{"osm_id":"25530034","name":null,"barrier":"cycle_barrier","highway":null,"ref":null,"address":null,"is_in":null,"place":null,"man_made":null,"other_tags":null}},{"type":"Point","coordinates":[-0.1290844,51.5102139],"properties":{"osm_id":"26573161","name":"Odeon Mezzanine","barrier":null,"highway":null,"ref":null,"address":null,"is_in":null,"place":null,"man_made":null,"other_tags":"\"amenity\"=>\"cinema\",\"toilets:wheelchair\"=>\"yes\",\"wheelchair\"=>\"limited\""}},{"type":"Point","coordinates":[-0.1304091,51.5109335],"properties":{"osm_id":"26573168","name":"Cineworld Leicester Square","barrier":null,"highway":null,"ref":null,"address":null,"is_in":null,"place":null,"man_made":null,"other_tags":"\"addr:city\"=>\"London\",\"addr:housenumber\"=>\"5-6\",\"addr:street\"=>\"Leicester Square\",\"amenity\"=>\"cinema\",\"fhrs:confidence_management\"=>\"5\",\"fhrs:hygiene\"=>\"5\",\"fhrs:id\"=>\"412954\",\"fhrs:local_authority_id\"=>\"00989/0005/0/001\",\"fhrs:rating\"=>\"2\",\"fhrs:structural\"=>\"15\",\"postal_code\"=>\"WC2H 7NA\",\"source:addr\"=>\"FSA Food Hygiene Ratings Database\",\"source:postcode\"=>\"FSA Food Hygiene Ratings Database\",\"wheelchair\"=>\"limited\",\"wikidata\"=>\"Q3724821\",\"wikipedia\"=>\"en:Empire, Leicester Square\""}},{"type":"Point","coordinates":[-0.1293677,51.5112449],"properties":{"osm_id":"26573173","name":"Vue Leicester Square","barrier":null,"highway":null,"ref":null,"address":null,"is_in":null,"place":null,"man_made":null,"other_tags":"\"amenity\"=>\"cinema\",\"wheelchair\"=>\"yes\""}},{"type":"Point","coordinates":[-0.1419788,51.5057078],"properties":{"osm_id":"26631299","name":"Green Park","barrier":null,"highway":null,"ref":null,"address":null,"is_in":null,"place":null,"man_made":null,"other_tags":"\"line\"=>\"Victoria\",\"network\"=>\"London Underground\",\"public_transport\"=>\"stop_position\",\"railway\"=>\"stop\",\"subway\"=>\"yes\",\"wheelchair\"=>\"yes\""}},{"type":"Point","coordinates":[-0.1312249,51.5095663],"properties":{"osm_id":"26671967","name":"Odeon Panton Street","barrier":null,"highway":null,"ref":null,"address":null,"is_in":null,"place":null,"man_made":null,"other_tags":"\"amenity\"=>\"cinema\",\"wikidata\"=>\"Q42030169\""}},{"type":"Point","coordinates":[-0.1313631,51.511278],"properties":{"osm_id":"26671973","name":"the Slug and Lettuce","barrier":null,"highway":null,"ref":null,"address":null,"is_in":null,"place":null,"man_made":null,"other_tags":"\"addr:city\"=>\"London\",\"addr:housenumber\"=>\"5\",\"addr:postcode\"=>\"WC2H 7BG\",\"addr:street\"=>\"Lisle Street\",\"amenity\"=>\"pub\",\"fhrs:confidence_management\"=>\"5\",\"fhrs:hygiene\"=>\"0\",\"fhrs:id\"=>\"412971\",\"fhrs:local_authority_id\"=>\"00992/0005/3/000\",\"fhrs:rating\"=>\"4\",\"fhrs:structural\"=>\"10\",\"source:addr\"=>\"FSA Food Hygiene Ratings Database\",\"source:postcode\"=>\"FSA Food Hygiene Ratings Database\",\"wheelchair\"=>\"yes\""}},{"type":"Point","coordinates":[-0.1322066,51.5123714],"properties":{"osm_id":"26699538","name":null,"barrier":null,"highway":null,"ref":null,"address":null,"is_in":null,"place":null,"man_made":null,"other_tags":null}},{"type":"Point","coordinates":[-0.1306078,51.5126577],"properties":{"osm_id":"26699541","name":"Curzon Soho","barrier":null,"highway":null,"ref":null,"address":null,"is_in":null,"place":null,"man_made":null,"other_tags":"\"addr:city\"=>\"London\",\"addr:housenumber\"=>\"99\",\"addr:street\"=>\"Shaftesbury Avenue\",\"amenity\"=>\"cinema\",\"fhrs:confidence_management\"=>\"10\",\"fhrs:hygiene\"=>\"5\",\"fhrs:id\"=>\"411768\",\"fhrs:local_authority_id\"=>\"12/00121/COMM\",\"fhrs:rating\"=>\"4\",\"fhrs:structural\"=>\"5\",\"postal_code\"=>\"W1D 5DY\",\"website\"=>\"http://www.curzoncinemas.com\",\"wheelchair\"=>\"yes\",\"wikidata\"=>\"Q42029812\""}},{"type":"Point","coordinates":[-0.1307587,51.5165109],"properties":{"osm_id":"26699558","name":"The Flying Horse","barrier":null,"highway":null,"ref":null,"address":null,"is_in":null,"place":null,"man_made":null,"other_tags":"\"amenity\"=>\"pub\",\"brand\"=>\"Nicholson's\",\"food\"=>\"yes\",\"old_name\"=>\"The Tottenham\",\"opening_hours\"=>\"Mo-Sa 11:00-23:00, Su 12:00-22:30\",\"real_ale\"=>\"yes\",\"wikidata\"=>\"Q16707773\""}},{"type":"Point","coordinates":[-0.1325596,51.5110542],"properties":{"osm_id":"26845558","name":"Old Tree Daiwan Bee","barrier":null,"highway":null,"ref":null,"address":null,"is_in":null,"place":null,"man_made":null,"other_tags":"\"amenity\"=>\"restaurant\",\"cuisine\"=>\"taiwan\""}},{"type":"Point","coordinates":[-0.1295014,51.5123533],"properties":{"osm_id":"26846355","name":null,"barrier":null,"highway":null,"ref":null,"address":null,"is_in":null,"place":null,"man_made":null,"other_tags":"\"amenity\"=>\"parking\",\"parking\"=>\"underground\""}},{"type":"Point","coordinates":[-0.1377493,51.5246057],"properties":{"osm_id":"27555804","name":"Warren Street","barrier":null,"highway":null,"ref":null,"address":null,"is_in":null,"place":null,"man_made":null,"other_tags":"\"line\"=>\"Northern, Victoria\",\"network\"=>\"London Underground\",\"public_transport\"=>\"stop_position\",\"railway\"=>\"stopping_point\",\"subway\"=>\"yes\",\"wheelchair\"=>\"no\""}},{"type":"Point","coordinates":[-0.1244469,51.5130521],"properties":{"osm_id":"28108910","name":"Covent Garden","barrier":null,"highway":null,"ref":null,"address":null,"is_in":null,"place":null,"man_made":null,"other_tags":"\"public_transport\"=>\"stop_position\",\"subway\"=>\"yes\""}},{"type":"Point","coordinates":[-0.130204,51.5114505],"properties":{"osm_id":"70750056","name":"Prince Charles Cinema","barrier":null,"highway":null,"ref":null,"address":null,"is_in":null,"place":null,"man_made":null,"other_tags":"\"addr:city\"=>\"London\",\"addr:housenumber\"=>\"7\",\"addr:street\"=>\"Leicester Place\",\"amenity\"=>\"cinema\",\"fhrs:confidence_management\"=>\"10\",\"fhrs:hygiene\"=>\"0\",\"fhrs:id\"=>\"411668\",\"fhrs:local_authority_id\"=>\"00526/0007/0/001\",\"fhrs:rating\"=>\"4\",\"fhrs:structural\"=>\"5\",\"postal_code\"=>\"WC2H 7BP\",\"source:addr\"=>\"FSA Food Hygiene Ratings Database\",\"source:postcode\"=>\"FSA Food Hygiene Ratings Database\",\"wheelchair\"=>\"limited\",\"wikidata\"=>\"Q7243849\",\"wikipedia\"=>\"en:Prince Charles Cinema\""}},{"type":"Point","coordinates":[-0.130051,51.5156861],"properties":{"osm_id":"70833764","name":"Tottenham Court Road","barrier":null,"highway":null,"ref":"fixme_1","address":null,"is_in":null,"place":null,"man_made":null,"other_tags":"\"line\"=>\"Northern\",\"network\"=>\"London Underground\",\"public_transport\"=>\"stop_position\",\"subway\"=>\"yes\",\"wikidata\"=>\"Q1431094\",\"wikimedia_commons\"=>\"Category:Tottenham_Court_Road_tube_station\",\"wikipedia\"=>\"en:Tottenham Court Road tube station\""}},{"type":"Point","coordinates":[-0.1283486,51.5119071],"properties":{"osm_id":"70833777","name":"Leicester Square","barrier":null,"highway":null,"ref":null,"address":null,"is_in":null,"place":null,"man_made":null,"other_tags":"\"level\"=>\"-4\",\"public_transport\"=>\"stop_position\",\"subway\"=>\"yes\""}},{"type":"Point","coordinates":[-0.131926,51.509736],"properties":{"osm_id":"246518191","name":"Piccadilly Comedy Club","barrier":null,"highway":null,"ref":null,"address":null,"is_in":null,"place":null,"man_made":null,"other_tags":"\"amenity\"=>\"theatre\",\"toilets\"=>\"yes\",\"toilets:access\"=>\"customers\""}},{"type":"Point","coordinates":[-0.1420128,51.515658],"properties":{"osm_id":"248200076","name":"Oxford Circus","barrier":null,"highway":null,"ref":null,"address":null,"is_in":null,"place":null,"man_made":null,"other_tags":"\"line\"=>\"Bakerloo\",\"network\"=>\"London Underground\",\"public_transport\"=>\"stop_position\",\"railway\"=>\"stop\",\"subway\"=>\"yes\",\"wikidata\"=>\"Q678791\",\"wikipedia\"=>\"en:Oxford Circus tube station\""}},{"type":"Point","coordinates":[-0.1414857,51.5127342],"properties":{"osm_id":"259774384","name":"Sketch","barrier":null,"highway":null,"ref":null,"address":null,"is_in":null,"place":null,"man_made":null,"other_tags":"\"addr:city\"=>\"London\",\"addr:housenumber\"=>\"9\",\"addr:postcode\"=>\"W1S 2XD\",\"addr:street\"=>\"Conduit Street\",\"amenity\"=>\"restaurant\",\"fhrs:confidence_management\"=>\"0\",\"fhrs:hygiene\"=>\"0\",\"fhrs:id\"=>\"413604\",\"fhrs:local_authority_id\"=>\"01288/0009/0/000\",\"fhrs:rating\"=>\"5\",\"fhrs:structural\"=>\"5\",\"phone\"=>\"+44 20 7659 4500\",\"source:addr\"=>\"FSA Food Hygiene Ratings Database\",\"source:postcode\"=>\"FSA Food Hygiene Ratings Database\",\"website\"=>\"http://www.sketch.london/\",\"wikidata\"=>\"Q14955160\""}},{"type":"Point","coordinates":[-0.137179,51.514191],"properties":{"osm_id":"264904873","name":null,"barrier":null,"highway":null,"ref":null,"address":null,"is_in":null,"place":null,"man_made":null,"other_tags":"\"amenity\"=>\"car_sharing\",\"capacity\"=>\"1\",\"operator\"=>\"Streetcar\""}},{"type":"Point","coordinates":[-0.1395168,51.5108588],"properties":{"osm_id":"266481945","name":"Tank & Paddle","barrier":null,"highway":null,"ref":null,"address":null,"is_in":null,"place":null,"man_made":null,"other_tags":"\"addr:city\"=>\"London\",\"addr:housenumber\"=>\"15\",\"addr:postcode\"=>\"W1\",\"addr:street\"=>\"Heddon Street\",\"amenity\"=>\"bar\",\"fhrs:confidence_management\"=>\"5\",\"fhrs:hygiene\"=>\"5\",\"fhrs:id\"=>\"412928\",\"fhrs:local_authority_id\"=>\"00982/0015/0/000\",\"fhrs:rating\"=>\"5\",\"fhrs:structural\"=>\"5\",\"postal_code\"=>\"W1B 4BF\",\"source:postcode\"=>\"FSA Food Hygiene Ratings Database\",\"website\"=>\"https://www.tankandpaddle.co.uk/heddon-street/\""}},{"type":"Point","coordinates":[-0.1398884,51.5113103],"properties":{"osm_id":"266481948","name":"Icebar","barrier":null,"highway":null,"ref":null,"address":null,"is_in":null,"place":null,"man_made":null,"other_tags":"\"addr:city\"=>\"London\",\"addr:housenumber\"=>\"29-33\",\"addr:interpolation\"=>\"odd\",\"addr:postcode\"=>\"W1\",\"addr:street\"=>\"Heddon Street\",\"amenity\"=>\"bar\",\"description\"=>\"Icebar London is the first permanent icebar in the UK located in the heart of London. The Icebar is kept at minus 5 degrees year around and everything inside is made out of crystal clear ice from the Torne River in Jukkasjarvi, Sweden. \",\"opening_hours\"=>\"Mo 14:15-22:15; Tu-Th 13:30-23:00; Fr 13:30-00:30; Sa 10:30-01:15; Su 10:00-20:15\",\"toilets\"=>\"yes\",\"toilets:access\"=>\"customers\",\"website\"=>\"https://www.belowzeroicebar.com/\""}},{"type":"Point","coordinates":[-0.1393146,51.5109108],"properties":{"osm_id":"266481949","name":"Aubaine","barrier":null,"highway":null,"ref":null,"address":null,"is_in":null,"place":null,"man_made":null,"other_tags":"\"addr:city\"=>\"London\",\"addr:housenumber\"=>\"4\",\"addr:postcode\"=>\"W1B 4BS\",\"addr:street\"=>\"Heddon Street\",\"amenity\"=>\"restaurant\",\"cuisine\"=>\"french\",\"website\"=>\"https://aubaine.co.uk/locations/heddon-street/\""}},{"type":"Point","coordinates":[-0.1419327,51.5147192],"properties":{"osm_id":"268272059","name":null,"barrier":null,"highway":null,"ref":null,"address":null,"is_in":null,"place":null,"man_made":null,"other_tags":"\"amenity\"=>\"bicycle_parking\""}},{"type":"Point","coordinates":[-0.1373884,51.5165073],"properties":{"osm_id":"271949863","name":"The Adam & Eve","barrier":null,"highway":null,"ref":null,"address":null,"is_in":null,"place":null,"man_made":null,"other_tags":"\"addr:housenumber\"=>\"77\",\"addr:postcode\"=>\"W1T 3QJ\",\"addr:street\"=>\"Wells Street\",\"amenity\"=>\"pub\",\"food\"=>\"yes\",\"old_name\"=>\"Ben Crouches Tavern\",\"phone\"=>\"+44 20 7636 0717\",\"toilets\"=>\"yes\",\"toilets:access\"=>\"customers\",\"website\"=>\"https://www.theadamandevew1.co.uk/\""}},{"type":"Point","coordinates":[-0.1331197,51.5161397],"properties":{"osm_id":"281454996","name":null,"barrier":null,"highway":null,"ref":null,"address":null,"is_in":null,"place":null,"man_made":null,"other_tags":"\"amenity\"=>\"bicycle_parking\",\"capacity\"=>\"6\""}},{"type":"Point","coordinates":[-0.1371697,51.509804],"properties":{"osm_id":"281454999","name":"Piccadilly Circus","barrier":null,"highway":"bus_stop","ref":"91420","address":null,"is_in":null,"place":null,"man_made":null,"other_tags":"\"local_ref\"=>\"E\",\"public_transport\"=>\"platform\""}},{"type":"Point","coordinates":[-0.1315444,51.5121643],"properties":{"osm_id":"281455002","name":null,"barrier":null,"highway":"crossing","ref":null,"address":null,"is_in":null,"place":null,"man_made":null,"other_tags":"\"crossing\"=>\"traffic_signals\",\"crossing_ref\"=>\"puffin\""}},{"type":"Point","coordinates":[-0.1313439,51.5122998],"properties":{"osm_id":"281455004","name":null,"barrier":null,"highway":null,"ref":null,"address":null,"is_in":null,"place":null,"man_made":null,"other_tags":"\"amenity\"=>\"telephone\""}},{"type":"Point","coordinates":[-0.1292259,51.5132266],"properties":{"osm_id":"281455005","name":null,"barrier":null,"highway":null,"ref":null,"address":null,"is_in":null,"place":null,"man_made":null,"other_tags":"\"amenity\"=>\"bicycle_parking\",\"capacity\"=>\"16\""}},{"type":"Point","coordinates":[-0.1413619,51.5112833],"properties":{"osm_id":"296358655","name":"StreetXO","barrier":null,"highway":null,"ref":null,"address":null,"is_in":null,"place":null,"man_made":null,"other_tags":"\"addr:city\"=>\"London\",\"addr:housenumber\"=>\"15\",\"addr:street\"=>\"Old Burlington Street\",\"amenity\"=>\"restaurant\",\"cuisine\"=>\"italian\",\"fhrs:confidence_management\"=>\"10\",\"fhrs:hygiene\"=>\"5\",\"fhrs:id\"=>\"412506\",\"fhrs:local_authority_id\"=>\"00857/0014/0/000\",\"fhrs:rating\"=>\"3\",\"fhrs:structural\"=>\"10\",\"phone\"=>\"+44 20 3096 7555\",\"postal_code\"=>\"W1S 2JR\",\"source:addr\"=>\"FSA Food Hygiene Ratings Database\",\"website\"=>\"https://streetxo.com/london/\""}},{"type":"Point","coordinates":[-0.1351365,51.5160578],"properties":{"osm_id":"302963477","name":"Wardour Street","barrier":null,"highway":"bus_stop","ref":"52226","address":null,"is_in":null,"place":null,"man_made":null,"other_tags":"\"local_ref\"=>\"OL\",\"naptan:AtcoCode\"=>\"490014214OL\",\"naptan:Bearing\"=>\"E\",\"naptan:CommonName\"=>\"Wardour Street  Oxford Street\",\"naptan:Indicator\"=>\"OL\",\"naptan:Street\"=>\"OXFORD STREET\",\"naptan:verified\"=>\"no\",\"public_transport\"=>\"platform\""}},{"type":"Point","coordinates":[-0.1390316,51.5129035],"properties":{"osm_id":"313349031","name":"Pastaio","barrier":null,"highway":null,"ref":null,"address":null,"is_in":null,"place":null,"man_made":null,"other_tags":"\"amenity\"=>\"restaurant\",\"cuisine\"=>\"italian\",\"level\"=>\"0\",\"website\"=>\"http://www.pastaio.london/\""}},{"type":"Point","coordinates":[-0.1353568,51.5161082],"properties":{"osm_id":"313349354","name":"100 Club","barrier":null,"highway":null,"ref":null,"address":null,"is_in":null,"place":null,"man_made":null,"other_tags":"\"addr:city\"=>\"London\",\"addr:housenumber\"=>\"100\",\"addr:postcode\"=>\"W1D 1LL\",\"addr:street\"=>\"Oxford Street\",\"amenity\"=>\"nightclub\",\"fhrs:confidence_management\"=>\"10\",\"fhrs:hygiene\"=>\"10\",\"fhrs:id\"=>\"427714\",\"fhrs:local_authority_id\"=>\"00159/0100/0/001\",\"fhrs:rating\"=>\"2\",\"fhrs:structural\"=>\"15\",\"source:postcode\"=>\"FSA Food Hygiene Ratings Database\",\"website\"=>\"http://www.the100club.co.uk/\",\"wikidata\"=>\"Q8535\",\"wikipedia\"=>\"en:100 Club\""}},{"type":"Point","coordinates":[-0.130543,51.51028],"properties":{"osm_id":"314718274","name":null,"barrier":null,"highway":null,"ref":null,"address":null,"is_in":null,"place":null,"man_made":null,"other_tags":"\"uk_postcode_centroid\"=>\"SW1Y\""}},{"type":"Point","coordinates":[-0.13501,51.513287],"properties":{"osm_id":"314729381","name":null,"barrier":null,"highway":null,"ref":null,"address":null,"is_in":null,"place":null,"man_made":null,"other_tags":"\"uk_postcode_centroid\"=>\"W1F\""}},{"type":"Point","coordinates":[-0.135201,51.513692],"properties":{"osm_id":"338952744","name":"Yauatcha","barrier":null,"highway":null,"ref":null,"address":null,"is_in":null,"place":null,"man_made":null,"other_tags":"\"addr:city\"=>\"London\",\"addr:housenumber\"=>\"15-17\",\"addr:street\"=>\"Broadwick Street\",\"amenity\"=>\"restaurant\",\"cuisine\"=>\"Asian Fusion\",\"fhrs:confidence_management\"=>\"0\",\"fhrs:hygiene\"=>\"5\",\"fhrs:id\"=>\"414531\",\"fhrs:local_authority_id\"=>\"04/00310/COMM\",\"fhrs:rating\"=>\"5\",\"fhrs:structural\"=>\"0\",\"postal_code\"=>\"W1F 0DL\",\"wheelchair\"=>\"yes\",\"wikidata\"=>\"Q8050323\",\"wikipedia\"=>\"en:Yauatcha\""}},{"type":"Point","coordinates":[-0.129588,51.511791],"properties":{"osm_id":"345884989","name":"Ku Bar","barrier":null,"highway":null,"ref":null,"address":null,"is_in":null,"place":null,"man_made":null,"other_tags":"\"addr:city\"=>\"London\",\"addr:housenumber\"=>\"29-30\",\"addr:postcode\"=>\"WC2H 7BA\",\"addr:street\"=>\"Lisle Street\",\"amenity\"=>\"bar\",\"fhrs:confidence_management\"=>\"10\",\"fhrs:hygiene\"=>\"5\",\"fhrs:id\"=>\"412984\",\"fhrs:local_authority_id\"=>\"00992/0030/0/000\",\"fhrs:rating\"=>\"3\",\"fhrs:structural\"=>\"10\",\"gay\"=>\"yes\",\"lgbtq\"=>\"primary\",\"phone\"=>\"+44 20 7437 4303\",\"postal_code\"=>\"WC2H 7BA\",\"source:addr\"=>\"FSA Food Hygiene Ratings Database\",\"source:postcode\"=>\"FSA Food Hygiene Ratings Database\",\"toilets\"=>\"yes\",\"toilets:access\"=>\"customers\",\"website\"=>\"http://www.ku-bar.co.uk/\",\"wikimedia_commons\"=>\"File:Ku Bar, Chinatown, WC2 (2361962660).jpg\""}},{"type":"Point","coordinates":[-0.1302586,51.5100392],"properties":{"osm_id":"347433410","name":null,"barrier":null,"highway":null,"ref":null,"address":null,"is_in":null,"place":null,"man_made":null,"other_tags":"\"amenity\"=>\"telephone\""}},{"type":"Point","coordinates":[-0.1298343,51.5107976],"properties":{"osm_id":"347433411","name":null,"barrier":null,"highway":null,"ref":null,"address":null,"is_in":null,"place":null,"man_made":null,"other_tags":"\"amenity\"=>\"telephone\""}},{"type":"Point","coordinates":[-0.1283501,51.5106245],"properties":{"osm_id":"348809537","name":null,"barrier":null,"highway":null,"ref":"WC2H 68;WC2H 268","address":null,"is_in":null,"place":null,"man_made":null,"other_tags":"\"amenity\"=>\"post_box\",\"collection_plate\"=>\"CP1\",\"collection_times\"=>\"Mo-Fr 18:30; Sa 12:00\",\"collection_times_checked\"=>\"2015-08-05\",\"description\"=>\"Left aperture for stamped; right aperture for franked.\",\"operator\"=>\"Royal Mail\",\"post_box:apertures\"=>\"2\",\"post_box:design\"=>\"type_c\",\"post_box:type\"=>\"pillar\",\"royal_cypher\"=>\"EIIR\""}},{"type":"Point","coordinates":[-0.1290453,51.5108756],"properties":{"osm_id":"348812894","name":"Zoo Bar & Club","barrier":null,"highway":null,"ref":null,"address":null,"is_in":null,"place":null,"man_made":null,"other_tags":"\"amenity\"=>\"bar\",\"fhrs:confidence_management\"=>\"5\",\"fhrs:hygiene\"=>\"5\",\"fhrs:id\"=>\"428024\",\"fhrs:local_authority_id\"=>\"01117/0010/0/000\",\"fhrs:rating\"=>\"5\",\"fhrs:structural\"=>\"5\",\"postal_code\"=>\"WC2H 7AS\",\"toilets\"=>\"yes\",\"toilets:access\"=>\"customers\""}},{"type":"Point","coordinates":[-0.1294345,51.510912],"properties":{"osm_id":"348814674","name":"Burger King","barrier":null,"highway":null,"ref":null,"address":null,"is_in":null,"place":null,"man_made":null,"other_tags":"\"amenity\"=>\"fast_food\",\"cuisine\"=>\"burger\""}},{"type":"Point","coordinates":[-0.1297637,51.5107724],"properties":{"osm_id":"348814978","name":null,"barrier":null,"highway":null,"ref":null,"address":null,"is_in":null,"place":null,"man_made":null,"other_tags":"\"amenity\"=>\"toilets\""}},{"type":"Point","coordinates":[-0.1293371,51.5102692],"properties":{"osm_id":"348817410","name":"The Moon Under Water","barrier":null,"highway":null,"ref":null,"address":null,"is_in":null,"place":null,"man_made":null,"other_tags":"\"addr:city\"=>\"London\",\"addr:housenumber\"=>\"28\",\"addr:postcode\"=>\"WC2H 7LE\",\"addr:street\"=>\"Leicester Square\",\"amenity\"=>\"pub\",\"fhrs:confidence_management\"=>\"0\",\"fhrs:hygiene\"=>\"5\",\"fhrs:id\"=>\"412961\",\"fhrs:local_authority_id\"=>\"00989/0028/0/001\",\"fhrs:rating\"=>\"5\",\"fhrs:structural\"=>\"0\",\"old_name\"=>\"The Moon Under Water\",\"outdoor_seating\"=>\"yes\",\"phone\"=>\"+44 2078392837\",\"source:addr\"=>\"FSA Food Hygiene Ratings Database\",\"source:postcode\"=>\"FSA Food Hygiene Ratings Database\""}},{"type":"Point","coordinates":[-0.128528,51.510479],"properties":{"osm_id":"348819221","name":"Barclays","barrier":null,"highway":null,"ref":null,"address":null,"is_in":null,"place":null,"man_made":null,"other_tags":"\"amenity\"=>\"bank\",\"atm\"=>\"yes\",\"operator\"=>\"Barclays Bank PLC\",\"wheelchair\"=>\"yes\""}},{"type":"Point","coordinates":[-0.1282149,51.5096066],"properties":{"osm_id":"348826086","name":"Sir Henry Irving","barrier":null,"highway":null,"ref":null,"address":null,"is_in":null,"place":null,"man_made":null,"other_tags":"\"artist_name\"=>\"Thomas Brock\",\"historic\"=>\"memorial\",\"memorial\"=>\"statue\",\"start_date\"=>\"1910\",\"wikidata\"=>\"Q32505\",\"wikipedia\"=>\"en:Henry Irving\""}},{"type":"Point","coordinates":[-0.1294962,51.5108269],"properties":{"osm_id":"348857103","name":"Pizza Hut","barrier":null,"highway":null,"ref":null,"address":null,"is_in":null,"place":null,"man_made":null,"other_tags":"\"addr:city\"=>\"London\",\"addr:housenumber\"=>\"19\",\"addr:street\"=>\"Leicester Square\",\"amenity\"=>\"fast_food\",\"cuisine\"=>\"pizza\",\"fhrs:id\"=>\"427986\",\"fhrs:local_authority_id\"=>\"00989/0019/0/000\",\"fhrs:rating\"=>\"4\",\"postal_code\"=>\"WC2H 7LE\",\"source:addr\"=>\"FSA Food Hygiene Ratings Database\",\"source:postcode\"=>\"FSA Food Hygiene Ratings Database\""}},{"type":"Point","coordinates":[-0.1297015,51.5106982],"properties":{"osm_id":"348860724","name":null,"barrier":null,"highway":null,"ref":null,"address":null,"is_in":null,"place":null,"man_made":null,"other_tags":"\"amenity\"=>\"telephone\""}},{"type":"Point","coordinates":[-0.1285878,51.5097813],"properties":{"osm_id":"348862855","name":"Steak & Co.","barrier":null,"highway":null,"ref":null,"address":null,"is_in":null,"place":null,"man_made":null,"other_tags":"\"amenity\"=>\"restaurant\",\"wheelchair\"=>\"designated\""}},{"type":"Point","coordinates":[-0.1285881,51.5099665],"properties":{"osm_id":"348863128","name":"Bella Italia","barrier":null,"highway":null,"ref":null,"address":null,"is_in":null,"place":null,"man_made":null,"other_tags":"\"addr:city\"=>\"London\",\"addr:housenumber\"=>\"10\",\"amenity\"=>\"restaurant\",\"cuisine\"=>\"italian\",\"fhrs:confidence_management\"=>\"5\",\"fhrs:hygiene\"=>\"5\",\"fhrs:id\"=>\"411514\",\"fhrs:local_authority_id\"=>\"00471/0010/0/000\",\"fhrs:rating\"=>\"5\",\"fhrs:structural\"=>\"5\",\"outdoor_seating\"=>\"yes\",\"postal_code\"=>\"WC2H 7AT\",\"source:addr\"=>\"FSA Food Hygiene Ratings Database\",\"source:postcode\"=>\"FSA Food Hygiene Ratings Database\",\"wheelchair\"=>\"limited\""}},{"type":"Point","coordinates":[-0.1316935,51.5105308],"properties":{"osm_id":"348865880","name":"Shake Shack","barrier":null,"highway":null,"ref":null,"address":null,"is_in":null,"place":null,"man_made":null,"other_tags":"\"amenity\"=>\"fast_food\",\"cuisine\"=>\"chicken\""}},{"type":"Point","coordinates":[-0.131813,51.511115],"properties":{"osm_id":"348867089","name":"Waxy's Little Sister","barrier":null,"highway":null,"ref":null,"address":null,"is_in":null,"place":null,"man_made":null,"other_tags":"\"amenity\"=>\"pub\",\"wheelchair\"=>\"no\",\"wikimedia_commons\"=>\"File:Wardour Street - Waxy's Little Sister pub.jpg\""}},{"type":"Point","coordinates":[-0.1322765,51.5114086],"properties":{"osm_id":"348870323","name":"O'Neills","barrier":null,"highway":null,"ref":null,"address":null,"is_in":null,"place":null,"man_made":null,"other_tags":"\"addr:street\"=>\"Wardour Street\",\"amenity\"=>\"pub\""}},{"type":"Point","coordinates":[-0.1327974,51.5114642],"properties":{"osm_id":"348871686","name":"Caffé Concerto","barrier":null,"highway":null,"ref":null,"address":null,"is_in":null,"place":null,"man_made":null,"other_tags":"\"addr:housenumber\"=>\"50\",\"addr:street\"=>\"Shaftesbury Avenue\",\"amenity\"=>\"cafe\",\"website\"=>\"https://www.caffeconcerto.co.uk/restaurant/shaftesbury-avenue.html\""}},{"type":"Point","coordinates":[-0.1334375,51.5121343],"properties":{"osm_id":"348874860","name":"Rupert Street","barrier":null,"highway":null,"ref":null,"address":null,"is_in":null,"place":null,"man_made":null,"other_tags":"\"addr:city\"=>\"London\",\"addr:housenumber\"=>\"50\",\"addr:postcode\"=>\"W1D 6DR\",\"addr:street\"=>\"Rupert Street\",\"amenity\"=>\"bar\",\"contact:facebook\"=>\"https://www.facebook.com/RupertStreetBar/\",\"contact:instagram\"=>\"https://www.instagram.com/rupert_street_bar/\",\"contact:twitter\"=>\"https://twitter.com/RupertStreetBar\",\"fhrs:confidence_management\"=>\"0\",\"fhrs:hygiene\"=>\"5\",\"fhrs:id\"=>\"414115\",\"fhrs:local_authority_id\"=>\"01532/0050/0/000\",\"fhrs:rating\"=>\"5\",\"fhrs:structural\"=>\"0\",\"food\"=>\"yes\",\"gay\"=>\"yes\",\"lgbtq\"=>\"primary\",\"opening_hours\"=>\"Mo-Th 12:00-23:00; Fr,Sa 12:00-23:45; Su 12:00-22:30\",\"outdoor_seating\"=>\"yes\",\"phone\"=>\"+44 207 4943059\",\"source:addr\"=>\"FSA Food Hygiene Ratings Database\",\"website\"=>\"https://www.rupert-street.com/london\",\"wheelchair\"=>\"yes\",\"wikimedia_commons\"=>\"File:Rupert_Street_bar.jpg\""}},{"type":"Point","coordinates":[-0.133848,51.512006],"properties":{"osm_id":"348875260","name":"The Yard","barrier":null,"highway":null,"ref":null,"address":null,"is_in":null,"place":null,"man_made":null,"other_tags":"\"addr:city\"=>\"London\",\"addr:housenumber\"=>\"57\",\"addr:street\"=>\"Rupert Street\",\"amenity\"=>\"bar\",\"beer_garden\"=>\"yes\",\"contact:facebook\"=>\"https://www.facebook.com/yardbarsoho/\",\"contact:twitter\"=>\"https://twitter.com/theyardsoho\",\"email\"=>\"info@yardbar.co.uk\",\"fhrs:confidence_management\"=>\"20\",\"fhrs:hygiene\"=>\"5\",\"fhrs:id\"=>\"414117\",\"fhrs:local_authority_id\"=>\"01532/0057/0/000\",\"fhrs:rating\"=>\"1\",\"fhrs:structural\"=>\"5\",\"gay\"=>\"yes\",\"lgbtq\"=>\"primary\",\"opening_hours\"=>\"Mo,Tu 14:00-23:30; We,Th 12:00-23:30; Fr,Sa 12:00-00:00; Su 12:00-22:30\",\"outdoor_seating\"=>\"yes\",\"payment:american_express\"=>\"no\",\"phone\"=>\"+44 20 7437 2652\",\"postal_code\"=>\"W1D 7PJ\",\"source:postcode\"=>\"FSA Food Hygiene Ratings Database\",\"website\"=>\"http://www.yardbar.co.uk\""}},{"type":"Point","coordinates":[-0.1296758,51.510196],"properties":{"osm_id":"348903454","name":null,"barrier":null,"highway":null,"ref":null,"address":null,"is_in":null,"place":null,"man_made":null,"other_tags":"\"amenity\"=>\"telephone\""}},{"type":"Point","coordinates":[-0.1329228,51.5100549],"properties":{"osm_id":"348904266","name":"Angus Steakhouse","barrier":null,"highway":null,"ref":null,"address":null,"is_in":null,"place":null,"man_made":null,"other_tags":"\"amenity\"=>\"restaurant\""}},{"type":"Point","coordinates":[-0.1330666,51.5100727],"properties":{"osm_id":"348905017","name":null,"barrier":null,"highway":null,"ref":null,"address":null,"is_in":null,"place":null,"man_made":null,"other_tags":"\"addr:postcode\"=>\"SW1Y 4SF\",\"amenity\"=>\"telephone\",\"covered\"=>\"booth\",\"phone\"=>\"+44 2 078392202;+44 02 7839 5217\""}},{"type":"Point","coordinates":[-0.1323455,51.5101446],"properties":{"osm_id":"348905523","name":"TGI Friday","barrier":null,"highway":null,"ref":null,"address":null,"is_in":null,"place":null,"man_made":null,"other_tags":"\"amenity\"=>\"restaurant\",\"wheelchair\"=>\"yes\""}},{"type":"Point","coordinates":[-0.1321048,51.5102494],"properties":{"osm_id":"348906180","name":null,"barrier":null,"highway":null,"ref":null,"address":null,"is_in":null,"place":null,"man_made":null,"other_tags":"\"amenity\"=>\"telephone\",\"phone\"=>\"+44 2 079304562\""}},{"type":"Point","coordinates":[-0.133418,51.509961],"properties":{"osm_id":"348906434","name":null,"barrier":null,"highway":null,"ref":null,"address":null,"is_in":null,"place":null,"man_made":null,"other_tags":"\"description\"=>\"Horses\",\"historic\"=>\"monument\""}},{"type":"Point","coordinates":[-0.133452,51.51186],"properties":{"osm_id":"348911273","name":"White Horse","barrier":null,"highway":null,"ref":null,"address":null,"is_in":null,"place":null,"man_made":null,"other_tags":"\"amenity\"=>\"pub\",\"outdoor_seating\"=>\"no\",\"wheelchair\"=>\"yes\""}},{"type":"Point","coordinates":[-0.1338386,51.5124556],"properties":{"osm_id":"348911998","name":"Escape","barrier":null,"highway":null,"ref":null,"address":null,"is_in":null,"place":null,"man_made":null,"other_tags":"\"addr:housenumber\"=>\"10\",\"addr:street\"=>\"Brewer Street\",\"amenity\"=>\"nightclub\",\"website\"=>\"escapesoho.com\""}},{"type":"Point","coordinates":[-0.133727,51.512509],"properties":{"osm_id":"348913121","name":"Madame Jojo’s","barrier":null,"highway":null,"ref":null,"address":null,"is_in":null,"place":null,"man_made":null,"other_tags":"\"addr:city\"=>\"London\",\"addr:housenumber\"=>\"8-10\",\"addr:street\"=>\"Brewer Street\",\"amenity\"=>\"nightclub\",\"fhrs:confidence_management\"=>\"10\",\"fhrs:hygiene\"=>\"5\",\"fhrs:id\"=>\"413298\",\"fhrs:local_authority_id\"=>\"01132/0008/0/000\",\"fhrs:rating\"=>\"2\",\"fhrs:structural\"=>\"15\",\"postal_code\"=>\"W1F 0SE\",\"source:addr\"=>\"FSA Food Hygiene Ratings Database\",\"source:postcode\"=>\"FSA Food Hygiene Ratings Database\""}},{"type":"Point","coordinates":[-0.1321409,51.5143677],"properties":{"osm_id":"370946839","name":"Flavour Bastard","barrier":null,"highway":null,"ref":null,"address":null,"is_in":null,"place":null,"man_made":null,"other_tags":"\"addr:city\"=>\"London\",\"addr:housenumber\"=>\"63-64\",\"addr:postcode\"=>\"W1D 3JW\",\"addr:street\"=>\"Frith Street\",\"amenity\"=>\"restaurant\",\"email\"=>\"eat@flavourbastard.com\",\"opening_hours\"=>\"Mo-Th 12:00-22:30; Fr-Sa 12:00-23:00; Su 12:00-22:00\",\"phone\"=>\"+44 20 7734 4545\",\"postal_code\"=>\"W1D 3JW\",\"website\"=>\"https://flavourbastard.com/\""}},{"type":"Point","coordinates":[-0.1319754,51.5110556],"properties":{"osm_id":"372519264","name":"Cafe TPT","barrier":null,"highway":null,"ref":null,"address":null,"is_in":null,"place":null,"man_made":null,"other_tags":"\"addr:city\"=>\"London\",\"addr:housenumber\"=>\"21\",\"addr:postcode\"=>\"W1D 6PN\",\"addr:street\"=>\"Wardour Street\",\"amenity\"=>\"restaurant\",\"cuisine\"=>\"chinese\",\"fhrs:confidence_management\"=>\"10\",\"fhrs:hygiene\"=>\"10\",\"fhrs:id\"=>\"412165\",\"fhrs:local_authority_id\"=>\"00688/0021/0/000\",\"fhrs:rating\"=>\"3\",\"fhrs:structural\"=>\"10\",\"source:postcode\"=>\"FSA Food Hygiene Ratings Database\""}},{"type":"Point","coordinates":[-0.1311084,51.5110628],"properties":{"osm_id":"372519332","name":"Joy King Lau","barrier":null,"highway":null,"ref":null,"address":null,"is_in":null,"place":null,"man_made":null,"other_tags":"\"addr:city\"=>\"London\",\"addr:housenumber\"=>\"3\",\"addr:postcode\"=>\"WC2H 7BL\",\"addr:street\"=>\"Leicester Street\",\"amenity\"=>\"restaurant\",\"cuisine\"=>\"chinese\",\"fhrs:confidence_management\"=>\"10\",\"fhrs:hygiene\"=>\"15\",\"fhrs:id\"=>\"468146\",\"fhrs:local_authority_id\"=>\"00439/0003/0/000\",\"fhrs:rating\"=>\"2\",\"fhrs:structural\"=>\"15\",\"source:addr\"=>\"FSA Food Hygiene Ratings Database\",\"source:postcode\"=>\"FSA Food Hygiene Ratings Database\",\"wheelchair\"=>\"limited\""}},{"type":"Point","coordinates":[-0.129317,51.5118519],"properties":{"osm_id":"372519364","name":"Tokyo Diner","barrier":null,"highway":null,"ref":null,"address":null,"is_in":null,"place":null,"man_made":null,"other_tags":"\"amenity\"=>\"restaurant\",\"cuisine\"=>\"japanese\",\"fhrs:confidence_management\"=>\"20\",\"fhrs:hygiene\"=>\"10\",\"fhrs:id\"=>\"413923\",\"fhrs:local_authority_id\"=>\"01465/0004/0/001\",\"fhrs:rating\"=>\"1\",\"fhrs:structural\"=>\"10\",\"postal_code\"=>\"WC2H 7JP\""}},{"type":"Point","coordinates":[-0.1303232,51.5123724],"properties":{"osm_id":"372519414","name":"New World","barrier":null,"highway":null,"ref":null,"address":null,"is_in":null,"place":null,"man_made":null,"other_tags":"\"addr:city\"=>\"London\",\"addr:housenumber\"=>\"1\",\"addr:postcode\"=>\"W1D 5PA\",\"addr:street\"=>\"Gerrard Place\",\"amenity\"=>\"restaurant\",\"cuisine\"=>\"chinese\",\"fhrs:confidence_management\"=>\"20\",\"fhrs:hygiene\"=>\"15\",\"fhrs:id\"=>\"410918\",\"fhrs:local_authority_id\"=>\"00111/0001/0/000\",\"fhrs:rating\"=>\"0\",\"fhrs:structural\"=>\"20\",\"name:zh\"=>\"新世界大酒家\",\"source:addr\"=>\"FSA Food Hygiene Ratings Database\",\"source:postcode\"=>\"FSA Food Hygiene Ratings Database\""}},{"type":"Point","coordinates":[-0.1313062,51.5121005],"properties":{"osm_id":"372519488","name":"De Hems Cafe Bar","barrier":null,"highway":null,"ref":null,"address":null,"is_in":null,"place":null,"man_made":null,"other_tags":"\"addr:city\"=>\"London\",\"addr:housenumber\"=>\"11\",\"addr:postcode\"=>\"W1D 5BW\",\"addr:street\"=>\"Macclesfield Street\",\"amenity\"=>\"pub\",\"fhrs:confidence_management\"=>\"5\",\"fhrs:hygiene\"=>\"5\",\"fhrs:id\"=>\"427700\",\"fhrs:local_authority_id\"=>\"00112/0011/0/000\",\"fhrs:rating\"=>\"5\",\"fhrs:structural\"=>\"5\",\"opening_hours\"=>\"Mo-Th 10:00-24:00; Fr-Sa 0:00-0:30; Fr-Sa 10:00-24:00; Su 10:00-23:00\",\"phone\"=>\"+44 20 7437 2494\",\"website\"=>\"http://www.nicholsonspubs.co.uk/dehemsdutchcafebarsoholondon/\",\"wheelchair\"=>\"yes\""}},{"type":"Point","coordinates":[-0.1315987,51.5134461],"properties":{"osm_id":"372519530","name":"Ronnie Scotts Jazz Club","barrier":null,"highway":null,"ref":null,"address":null,"is_in":null,"place":null,"man_made":null,"other_tags":"\"addr:housenumber\"=>\"47\",\"addr:postcode\"=>\"W1D 4HT\",\"addr:street\"=>\"Frith Street\",\"amenity\"=>\"bar\",\"toilets:wheelchair\"=>\"no\",\"website\"=>\"http://www.ronniescotts.co.uk\",\"wheelchair\"=>\"no\",\"wikimedia_commons\"=>\"Category:Ronnie Scott's Jazz Club\""}},{"type":"Point","coordinates":[-0.1312004,51.5134023],"properties":{"osm_id":"372519553","name":"Bar Italia","barrier":null,"highway":null,"ref":null,"address":null,"is_in":null,"place":null,"man_made":null,"other_tags":"\"addr:city\"=>\"London\",\"addr:housenumber\"=>\"22\",\"amenity\"=>\"cafe\",\"fhrs:confidence_management\"=>\"5\",\"fhrs:hygiene\"=>\"0\",\"fhrs:id\"=>\"413657\",\"fhrs:local_authority_id\"=>\"01333/0022/0/001\",\"fhrs:rating\"=>\"5\",\"fhrs:structural\"=>\"5\",\"postal_code\"=>\"W1D 4RP\",\"source:addr\"=>\"FSA Food Hygiene Ratings Database\",\"source:postcode\"=>\"FSA Food Hygiene Ratings Database\",\"website\"=>\"http://www.baritaliasoho.co.uk\""}},{"type":"Point","coordinates":[-0.1318777,51.5128861],"properties":{"osm_id":"373039733","name":null,"barrier":null,"highway":null,"ref":null,"address":null,"is_in":null,"place":null,"man_made":"surveillance","other_tags":"\"camera:mount\"=>\"wall\",\"camera:type\"=>\"dome\",\"surveillance\"=>\"outdoor\",\"surveillance:type\"=>\"camera\""}},{"type":"Point","coordinates":[-0.1306611,51.5165283],"properties":{"osm_id":"373442556","name":"Carphone Warehouse","barrier":null,"highway":null,"ref":null,"address":null,"is_in":null,"place":null,"man_made":null,"other_tags":"\"addr:housenumber\"=>\"4\",\"addr:street\"=>\"Oxford Street\",\"opening_hours\"=>\"Mo-Fr 21:00-20:00, Sa 09:30-19:30, Su 11:30-18:30\",\"payment:american_express\"=>\"yes\",\"phone\"=>\"+44 843 538 1473\",\"shop\"=>\"mobile_phone\",\"website\"=>\"http://www.carphonewarehouse.com\",\"wheelchair\"=>\"yes\""}},{"type":"Point","coordinates":[-0.132367,51.515633],"properties":{"osm_id":"380494795","name":null,"barrier":null,"highway":null,"ref":null,"address":null,"is_in":null,"place":null,"man_made":null,"other_tags":"\"amenity\"=>\"toilets\",\"male\"=>\"yes\",\"opening_hours\"=>\"Mo-Su 18:00-05:00\""}},{"type":"Point","coordinates":[-0.132722,51.517172],"properties":{"osm_id":"380494800","name":null,"barrier":"gate","highway":null,"ref":null,"address":null,"is_in":null,"place":null,"man_made":null,"other_tags":null}},{"type":"Point","coordinates":[-0.1371509,51.5148973],"properties":{"osm_id":"381992529","name":null,"barrier":null,"highway":null,"ref":"W1 99","address":null,"is_in":null,"place":null,"man_made":null,"other_tags":"\"amenity\"=>\"post_box\",\"collection_times\"=>\"Mo-Fr 18:30; Sa 12:00\",\"collection_times_checked\"=>\"2015-09-24\",\"operator\"=>\"Royal Mail\",\"post_box:apertures\"=>\"2\",\"post_box:type\"=>\"pillar\",\"royal_cypher\"=>\"EIIR\""}},{"type":"Point","coordinates":[-0.132189,51.5147905],"properties":{"osm_id":"381992661","name":null,"barrier":null,"highway":null,"ref":null,"address":null,"is_in":null,"place":null,"man_made":null,"other_tags":"\"amenity\"=>\"telephone\""}},{"type":"Point","coordinates":[-0.1316741,51.5149347],"properties":{"osm_id":"381992663","name":null,"barrier":null,"highway":null,"ref":null,"address":null,"is_in":null,"place":null,"man_made":null,"other_tags":"\"amenity\"=>\"telephone\""}},{"type":"Point","coordinates":[-0.1366943,51.514903],"properties":{"osm_id":"381993019","name":null,"barrier":null,"highway":null,"ref":null,"address":null,"is_in":null,"place":null,"man_made":null,"other_tags":"\"amenity\"=>\"telephone\",\"booth\"=>\"KX100\",\"operator\"=>\"BT\""}},{"type":"Point","coordinates":[-0.1351862,51.5139629],"properties":{"osm_id":"382186111","name":null,"barrier":null,"highway":null,"ref":null,"address":null,"is_in":null,"place":null,"man_made":null,"other_tags":"\"shop\"=>\"convenience\""}},{"type":"Point","coordinates":[-0.1348814,51.5161558],"properties":{"osm_id":"382400448","name":"Sunglass Hut","barrier":null,"highway":null,"ref":null,"address":null,"is_in":null,"place":null,"man_made":null,"other_tags":"\"shop\"=>\"sunglasses\",\"survey:date\"=>\"2014-11-01\""}},{"type":"Point","coordinates":[-0.1324326,51.5161567],"properties":{"osm_id":"382400807","name":"Kanoo","barrier":null,"highway":null,"ref":null,"address":null,"is_in":null,"place":null,"man_made":null,"other_tags":"\"addr:housenumber\"=>\"53\",\"addr:street\"=>\"Oxford Street\",\"shop\"=>\"travel_agency\",\"wheelchair\"=>\"limited\""}},{"type":"Point","coordinates":[-0.1316524,51.5162386],"properties":{"osm_id":"382401309","name":"Singhar Beauty Centre","barrier":null,"highway":null,"ref":null,"address":null,"is_in":null,"place":null,"man_made":null,"other_tags":"\"addr:housenumber\"=>\"33\",\"addr:street\"=>\"Oxford Street\",\"shop\"=>\"beauty\",\"wheelchair\"=>\"limited\""}},{"type":"Point","coordinates":[-0.1344574,51.5154983],"properties":{"osm_id":"382512980","name":"The London Gin Club","barrier":null,"highway":null,"ref":null,"address":null,"is_in":null,"place":null,"man_made":null,"other_tags":"\"addr:housenumber\"=>\"22\",\"addr:street\"=>\"Great Chapel Street\",\"amenity\"=>\"bar\",\"website\"=>\"https://thelondonginclub.com/\""}},{"type":"Point","coordinates":[-0.1352833,51.5154204],"properties":{"osm_id":"382512984","name":null,"barrier":null,"highway":null,"ref":null,"address":null,"is_in":null,"place":null,"man_made":null,"other_tags":"\"addr:housenumber\"=>\"15\",\"addr:street\"=>\"Hollen Street\""}},{"type":"Point","coordinates":[-0.134482,51.5150323],"properties":{"osm_id":"382512993","name":"Medius House","barrier":null,"highway":null,"ref":null,"address":null,"is_in":null,"place":null,"man_made":null,"other_tags":"\"addr:housename\"=>\"Medius House\",\"addr:housenumber\"=>\"2\",\"addr:postcode\"=>\"W1F 8BH\",\"addr:street\"=>\"Sheraton Street\""}},{"type":"Point","coordinates":[-0.134083,51.514807],"properties":{"osm_id":"382512995","name":null,"barrier":null,"highway":null,"ref":null,"address":null,"is_in":null,"place":null,"man_made":null,"other_tags":"\"addr:housenumber\"=>\"10\",\"addr:street\"=>\"Carlisle Street\""}},{"type":"Point","coordinates":[-0.1339154,51.514905],"properties":{"osm_id":"382513006","name":null,"barrier":null,"highway":null,"ref":null,"address":null,"is_in":null,"place":null,"man_made":null,"other_tags":"\"addr:housenumber\"=>\"15\",\"addr:street\"=>\"Carlisle Street\""}},{"type":"Point","coordinates":[-0.1340696,51.5150658],"properties":{"osm_id":"382513012","name":"Great Chapel Street Medical Centre","barrier":null,"highway":null,"ref":null,"address":null,"is_in":null,"place":null,"man_made":null,"other_tags":"\"amenity\"=>\"doctors\",\"operator\"=>\"Central London Clinical Commissioning Group (NHS)\",\"phone\"=>\"+44 20 7437 9360\""}},{"type":"Point","coordinates":[-0.1345403,51.5146387],"properties":{"osm_id":"382513019","name":null,"barrier":null,"highway":null,"ref":null,"address":null,"is_in":null,"place":null,"man_made":null,"other_tags":"\"addr:housenumber\"=>\"140\",\"addr:street\"=>\"Wardour Street\""}},{"type":"Point","coordinates":[-0.1345304,51.5143782],"properties":{"osm_id":"382513023","name":null,"barrier":null,"highway":null,"ref":null,"address":null,"is_in":null,"place":null,"man_made":null,"other_tags":"\"addr:housenumber\"=>\"132\",\"addr:street\"=>\"Wardour Street\""}},{"type":"Point","coordinates":[-0.1344599,51.5142855],"properties":{"osm_id":"382513028","name":null,"barrier":null,"highway":null,"ref":null,"address":null,"is_in":null,"place":null,"man_made":null,"other_tags":"\"addr:housenumber\"=>\"128\",\"addr:street\"=>\"Wardour Street\",\"postal_code\"=>\"W1F 8ZL\""}},{"type":"Point","coordinates":[-0.1341419,51.5139734],"properties":{"osm_id":"382513036","name":"Print Room Soho","barrier":null,"highway":null,"ref":null,"address":null,"is_in":null,"place":null,"man_made":null,"other_tags":"\"addr:housenumber\"=>\"112-114\",\"addr:street\"=>\"Wardour Street\",\"shop\"=>\"copyshop\",\"wheelchair\"=>\"yes\""}},{"type":"Point","coordinates":[-0.1337974,51.5141462],"properties":{"osm_id":"382513039","name":"Refuel","barrier":null,"highway":null,"ref":null,"address":null,"is_in":null,"place":null,"man_made":null,"other_tags":"\"amenity\"=>\"restaurant\""}},{"type":"Point","coordinates":[-0.1353906,51.5151095],"properties":{"osm_id":"382513077","name":null,"barrier":null,"highway":null,"ref":null,"address":null,"is_in":null,"place":null,"man_made":null,"other_tags":"\"addr:city\"=>\"London\",\"addr:country\"=>\"GB\",\"addr:housenumber\"=>\"181\",\"addr:street\"=>\"Wardour Street\""}},{"type":"Point","coordinates":[-0.141352,51.5155336],"properties":{"osm_id":"383964404","name":"Topshop","barrier":null,"highway":null,"ref":null,"address":null,"is_in":null,"place":null,"man_made":null,"other_tags":"\"addr:city\"=>\"London\",\"addr:housenumber\"=>\"214\",\"addr:postcode\"=>\"W1W 8LG\",\"addr:street\"=>\"Oxford Street\",\"payment:american_express\"=>\"yes\",\"phone\"=>\"+44 344 848 7487\",\"second_hand\"=>\"no\",\"shop\"=>\"clothes\",\"website\"=>\"http://www.topshop.com\",\"wheelchair\"=>\"yes\""}},{"type":"Point","coordinates":[-0.1412637,51.5154505],"properties":{"osm_id":"383964405","name":null,"barrier":null,"highway":null,"ref":null,"address":null,"is_in":null,"place":null,"man_made":null,"other_tags":"\"amenity\"=>\"telephone\""}},{"type":"Point","coordinates":[-0.140945,51.515578],"properties":{"osm_id":"383964407","name":"Miss Selfridge","barrier":null,"highway":null,"ref":null,"address":null,"is_in":null,"place":null,"man_made":null,"other_tags":"\"addr:city\"=>\"London\",\"addr:housenumber\"=>\"216\",\"addr:street\"=>\"Oxford Street\",\"shop\"=>\"clothes\",\"website\"=>\"http://www.missselfridge.com\",\"wheelchair\"=>\"yes\""}},{"type":"Point","coordinates":[-0.1404427,51.5157219],"properties":{"osm_id":"383964409","name":null,"barrier":null,"highway":null,"ref":null,"address":null,"is_in":null,"place":null,"man_made":null,"other_tags":"\"amenity\"=>\"telephone\""}},{"type":"Point","coordinates":[-0.1403925,51.5153256],"properties":{"osm_id":"383964410","name":"Bershka","barrier":null,"highway":null,"ref":null,"address":null,"is_in":null,"place":null,"man_made":null,"other_tags":"\"addr:city\"=>\"London\",\"addr:housenumber\"=>\"221-223\",\"addr:postcode\"=>\"W1D 2LJ\",\"addr:street\"=>\"Oxford Street\",\"phone\"=>\"+44 20 7025 6160\",\"shop\"=>\"clothes\",\"wheelchair\"=>\"yes\""}},{"type":"Point","coordinates":[-0.1406126,51.5152955],"properties":{"osm_id":"383964411","name":"Mango","barrier":null,"highway":null,"ref":null,"address":null,"is_in":null,"place":null,"man_made":null,"other_tags":"\"shop\"=>\"clothes\",\"wheelchair\"=>\"limited\""}},{"type":"Point","coordinates":[-0.1404008,51.5153859],"properties":{"osm_id":"383964412","name":null,"barrier":null,"highway":null,"ref":null,"address":null,"is_in":null,"place":null,"man_made":null,"other_tags":"\"surveillance\"=>\"public\",\"type\"=>\"dome_camera\""}},{"type":"Point","coordinates":[-0.1400798,51.5155982],"properties":{"osm_id":"383964415","name":null,"barrier":null,"highway":null,"ref":null,"address":null,"is_in":null,"place":null,"man_made":null,"other_tags":"\"looking\"=>\"east\",\"surveillance\"=>\"outdoor\",\"type\"=>\"telescope\""}},{"type":"Point","coordinates":[-0.1400276,51.515651],"properties":{"osm_id":"383964416","name":null,"barrier":null,"highway":null,"ref":null,"address":null,"is_in":null,"place":null,"man_made":null,"other_tags":"\"looking\"=>\"atm\",\"surveillance\"=>\"outdoor\",\"type\"=>\"telescope\""}},{"type":"Point","coordinates":[-0.1398578,51.5154067],"properties":{"osm_id":"383964418","name":"River Island","barrier":null,"highway":null,"ref":null,"address":null,"is_in":null,"place":null,"man_made":null,"other_tags":"\"shop\"=>\"clothes\""}},{"type":"Point","coordinates":[-0.1393277,51.5156576],"properties":{"osm_id":"383964423","name":null,"barrier":null,"highway":null,"ref":null,"address":null,"is_in":null,"place":null,"man_made":null,"other_tags":"\"looking\"=>\"north\",\"surveillance\"=>\"public\",\"type\"=>\"telescope\""}},{"type":"Point","coordinates":[-0.1390898,51.515729],"properties":{"osm_id":"383964424","name":"H&M","barrier":null,"highway":null,"ref":null,"address":null,"is_in":null,"place":null,"man_made":null,"other_tags":"\"shop\"=>\"clothes\",\"wheelchair\"=>\"yes\""}},{"type":"Point","coordinates":[-0.139327,51.5157395],"properties":{"osm_id":"383964425","name":null,"barrier":null,"highway":null,"ref":null,"address":null,"is_in":null,"place":null,"man_made":null,"other_tags":"\"amenity\"=>\"bicycle_parking\",\"capacity\"=>\"12\""}},{"type":"Point","coordinates":[-0.1394753,51.5157606],"properties":{"osm_id":"383964426","name":null,"barrier":null,"highway":null,"ref":null,"address":null,"is_in":null,"place":null,"man_made":null,"other_tags":"\"amenity\"=>\"telephone\""}},{"type":"Point","coordinates":[-0.1393409,51.5154784],"properties":{"osm_id":"383964429","name":null,"barrier":null,"highway":null,"ref":null,"address":null,"is_in":null,"place":null,"man_made":null,"other_tags":"\"surveillance\"=>\"public\",\"type\"=>\"dome_camera\""}},{"type":"Point","coordinates":[-0.1389511,51.5154835],"properties":{"osm_id":"383964432","name":"Muji","barrier":null,"highway":null,"ref":null,"address":null,"is_in":null,"place":null,"man_made":null,"other_tags":"\"description\"=>\"Muji is a Japanese store selling everything from T-shirts and kitchenware to pens and pencils.\",\"phone\"=>\"+44 20 7437 7503\",\"shop\"=>\"clothes\",\"website\"=>\"http://www.muji.co.uk\""}},{"type":"Point","coordinates":[-0.1388373,51.5154917],"properties":{"osm_id":"383964433","name":"McDonald's","barrier":null,"highway":null,"ref":null,"address":null,"is_in":null,"place":null,"man_made":null,"other_tags":"\"amenity\"=>\"fast_food\",\"cuisine\"=>\"burger\""}},{"type":"Point","coordinates":[-0.1386809,51.5157801],"properties":{"osm_id":"383974162","name":"Uniqlo","barrier":null,"highway":null,"ref":null,"address":null,"is_in":null,"place":null,"man_made":null,"other_tags":"\"addr:housenumber\"=>\"170\",\"addr:street\"=>\"Oxford Street\",\"opening_hours\"=>\"Mo-Sa 10:00-21:00; Su 12:00-18:00\",\"payment:american_express\"=>\"yes\",\"shop\"=>\"clothes\",\"website\"=>\"http://www.uniqlo.co.uk\",\"wheelchair\"=>\"yes\""}},{"type":"Point","coordinates":[-0.1385554,51.5156256],"properties":{"osm_id":"383974163","name":null,"barrier":null,"highway":null,"ref":null,"address":null,"is_in":null,"place":null,"man_made":null,"other_tags":"\"amenity\"=>\"telephone\""}},{"type":"Point","coordinates":[-0.1380798,51.5155852],"properties":{"osm_id":"383979069","name":null,"barrier":null,"highway":null,"ref":null,"address":null,"is_in":null,"place":null,"man_made":null,"other_tags":"\"addr:housenumber\"=>\"169\""}},{"type":"Point","coordinates":[-0.1380248,51.5156526],"properties":{"osm_id":"383979072","name":null,"barrier":null,"highway":null,"ref":null,"address":null,"is_in":null,"place":null,"man_made":null,"other_tags":"\"natural\"=>\"tree\""}},{"type":"Point","coordinates":[-0.1375992,51.515412],"properties":{"osm_id":"383979078","name":null,"barrier":null,"highway":null,"ref":null,"address":null,"is_in":null,"place":null,"man_made":"surveillance","other_tags":"\"camera:type\"=>\"dome\",\"surveillance\"=>\"public\""}},{"type":"Point","coordinates":[-0.1375199,51.5156448],"properties":{"osm_id":"383979080","name":"Flight Centre","barrier":null,"highway":null,"ref":null,"address":null,"is_in":null,"place":null,"man_made":null,"other_tags":"\"shop\"=>\"travel_agency\""}},{"type":"Point","coordinates":[-0.1373702,51.5156621],"properties":{"osm_id":"383979082","name":"EE","barrier":null,"highway":null,"ref":null,"address":null,"is_in":null,"place":null,"man_made":null,"other_tags":"\"addr:housenumber\"=>\"155-157\",\"addr:street\"=>\"Oxford Street\",\"phone\"=>\"+44 845 097 1634\",\"shop\"=>\"mobile_phone\""}},{"type":"Point","coordinates":[-0.1372594,51.5156708],"properties":{"osm_id":"383979083","name":"Ulanka","barrier":null,"highway":null,"ref":null,"address":null,"is_in":null,"place":null,"man_made":null,"other_tags":"\"addr:housenumber\"=>\"153\",\"addr:street\"=>\"Oxford Street\",\"phone\"=>\"+44 20 7287 0072\",\"shop\"=>\"shoes\",\"website\"=>\"https://www.ulanka.co.uk/#\""}},{"type":"Point","coordinates":[-0.1374583,51.5158928],"properties":{"osm_id":"383979085","name":"The Gift Shop","barrier":null,"highway":null,"ref":null,"address":null,"is_in":null,"place":null,"man_made":null,"other_tags":"\"addr:housenumber\"=>\"142-144\",\"addr:street\"=>\"Oxford Street\",\"phone\"=>\"+44 20 7631 1792\",\"postal_code\"=>\"W1D 1LZ\",\"shop\"=>\"gift\""}},{"type":"Point","coordinates":[-0.1369365,51.5157006],"properties":{"osm_id":"383980813","name":"American Candy","barrier":null,"highway":null,"ref":null,"address":null,"is_in":null,"place":null,"man_made":null,"other_tags":"\"addr:housenumber\"=>\"147\",\"addr:street\"=>\"Oxford Street\",\"shop\"=>\"confectionery\",\"website\"=>\"http://www.americancandylondon.co.uk/\""}},{"type":"Point","coordinates":[-0.1368957,51.5160868],"properties":{"osm_id":"383980819","name":null,"barrier":null,"highway":null,"ref":null,"address":null,"is_in":null,"place":null,"man_made":null,"other_tags":"\"amenity\"=>\"telephone\""}},{"type":"Point","coordinates":[-0.1366581,51.5155449],"properties":{"osm_id":"383980821","name":"Green Man","barrier":null,"highway":null,"ref":null,"address":null,"is_in":null,"place":null,"man_made":null,"other_tags":"\"addr:housenumber\"=>\"57\",\"addr:street\"=>\"Berwick Street\",\"amenity\"=>\"pub\",\"cuisine\"=>\"fish'n'chips\",\"opening_hours\"=>\"Mo-Th 09:00-23:00; Fr 09:00-01:00; Sa 09:00-00:00; Su 09:00-22:30\",\"phone\"=>\"+44 2074949731\",\"website\"=>\"https://thegreenmansoho.co.uk\",\"wheelchair\"=>\"yes\",\"wikidata\"=>\"Q27083993\""}},{"type":"Point","coordinates":[-0.1363508,51.5157641],"properties":{"osm_id":"384759667","name":"Souvenirs of London","barrier":null,"highway":null,"ref":null,"address":null,"is_in":null,"place":null,"man_made":null,"other_tags":"\"addr:housenumber\"=>\"137\",\"addr:street\"=>\"Oxford Street\",\"shop\"=>\"gift\",\"website\"=>\"www.sourveniroflondon.com\""}},{"type":"Point","coordinates":[-0.1361893,51.5157056],"properties":{"osm_id":"384759674","name":"Grafton College","barrier":null,"highway":null,"ref":null,"address":null,"is_in":null,"place":null,"man_made":null,"other_tags":"\"addr:housenumber\"=>\"133-135\",\"addr:street\"=>\"Oxford Street\",\"amenity\"=>\"college\",\"website\"=>\"http://www.graftoncollege.com/\""}},{"type":"Point","coordinates":[-0.1360575,51.5157903],"properties":{"osm_id":"384759675","name":"Jessops","barrier":null,"highway":null,"ref":null,"address":null,"is_in":null,"place":null,"man_made":null,"other_tags":"\"addr:housenumber\"=>\"129-131\",\"addr:postcode\"=>\"W1D 2HU\",\"addr:street\"=>\"Oxford Street\",\"shop\"=>\"electronics\""}},{"type":"Point","coordinates":[-0.1359073,51.5158116],"properties":{"osm_id":"384759679","name":"Vodafone","barrier":null,"highway":null,"ref":null,"address":null,"is_in":null,"place":null,"man_made":null,"other_tags":"\"addr:housenumber\"=>\"127\",\"addr:street\"=>\"Oxford Street\",\"payment:american_express\"=>\"yes\",\"shop\"=>\"mobile_phone\""}},{"type":"Point","coordinates":[-0.136054,51.5160223],"properties":{"osm_id":"384759680","name":null,"barrier":null,"highway":null,"ref":"W1 102","address":null,"is_in":null,"place":null,"man_made":null,"other_tags":"\"amenity\"=>\"post_box\",\"collection_times\"=>\"Mo-Fr 18:30; Sa 12:00\",\"collection_times_checked\"=>\"2015-08-05\",\"description\"=>\"Left aperture for stamped; right aperture for franked.\",\"operator\"=>\"Royal Mail\",\"postal_code\"=>\"W1\",\"post_box:apertures\"=>\"2\",\"post_box:type\"=>\"pillar\",\"royal_cypher\"=>\"EIIR\""}},{"type":"Point","coordinates":[-0.136066,51.5160566],"properties":{"osm_id":"384759681","name":null,"barrier":null,"highway":null,"ref":null,"address":null,"is_in":null,"place":null,"man_made":null,"other_tags":"\"amenity\"=>\"telephone\""}},{"type":"Point","coordinates":[-0.1359571,51.5163212],"properties":{"osm_id":"384759682","name":"Nando's","barrier":null,"highway":null,"ref":null,"address":null,"is_in":null,"place":null,"man_made":null,"other_tags":"\"addr:housenumber\"=>\"2\",\"addr:street\"=>\"Berners Street\",\"amenity\"=>\"restaurant\",\"cuisine\"=>\"portuguese\",\"website\"=>\"https://www.nandos.co.uk/\""}},{"type":"Point","coordinates":[-0.1360448,51.5164498],"properties":{"osm_id":"384759683","name":"Subway","barrier":null,"highway":null,"ref":null,"address":null,"is_in":null,"place":null,"man_made":null,"other_tags":"\"addr:housenumber\"=>\"4\",\"addr:street\"=>\"Berners Street\",\"amenity\"=>\"fast_food\",\"cuisine\"=>\"sandwich\",\"phone\"=>\"+44 20 7580 9051\",\"postal_code\"=>\"W1T 3LE\""}},{"type":"Point","coordinates":[-0.1360022,51.5163911],"properties":{"osm_id":"384759684","name":"Gourmet Burger Kitchen","barrier":null,"highway":null,"ref":null,"address":null,"is_in":null,"place":null,"man_made":null,"other_tags":"\"addr:housenumber\"=>\"3\",\"addr:street\"=>\"Berners Street\",\"amenity\"=>\"restaurant\",\"cuisine\"=>\"burger\",\"postal_code\"=>\"W1T 3LD\""}},{"type":"Point","coordinates":[-0.1355866,51.5158324],"properties":{"osm_id":"384759687","name":"Samsung","barrier":null,"highway":null,"ref":null,"address":null,"is_in":null,"place":null,"man_made":null,"other_tags":"\"shop\"=>\"electronics\",\"wheelchair\"=>\"yes\""}},{"type":"Point","coordinates":[-0.1354167,51.5158522],"properties":{"osm_id":"384759694","name":"Clarks","barrier":null,"highway":null,"ref":null,"address":null,"is_in":null,"place":null,"man_made":null,"other_tags":"\"shop\"=>\"shoes\",\"wheelchair\"=>\"yes\""}},{"type":"Point","coordinates":[-0.1352742,51.5161014],"properties":{"osm_id":"384761522","name":null,"barrier":null,"highway":null,"ref":null,"address":null,"is_in":null,"place":null,"man_made":null,"other_tags":"\"amenity\"=>\"clock\""}},{"type":"Point","coordinates":[-0.1353056,51.515866],"properties":{"osm_id":"384761523","name":"Lloyds Bank","barrier":null,"highway":null,"ref":null,"address":null,"is_in":null,"place":null,"man_made":null,"other_tags":"\"amenity\"=>\"bank\",\"wheelchair\"=>\"yes\""}},{"type":"Point","coordinates":[-0.1351104,51.5158785],"properties":{"osm_id":"384761524","name":"The Perfume Shop","barrier":null,"highway":null,"ref":null,"address":null,"is_in":null,"place":null,"man_made":null,"other_tags":"\"addr:housenumber\"=>\"111\",\"addr:street\"=>\"Oxford Street\",\"shop\"=>\"perfumery\",\"website\"=>\"https://www.theperfumeshop.com/\",\"wheelchair\"=>\"yes\""}},{"type":"Point","coordinates":[-0.1349827,51.5159015],"properties":{"osm_id":"385491682","name":"Foot Locker","barrier":null,"highway":null,"ref":null,"address":null,"is_in":null,"place":null,"man_made":null,"other_tags":"\"shop\"=>\"shoes\",\"wheelchair\"=>\"yes\""}},{"type":"Point","coordinates":[-0.1348432,51.515909],"properties":{"osm_id":"385491683","name":"Tiger","barrier":null,"highway":null,"ref":null,"address":null,"is_in":null,"place":null,"man_made":null,"other_tags":"\"addr:housenumber\"=>\"105-107\",\"addr:street\"=>\"Oxford Street\",\"shop\"=>\"interior_decoration\",\"wheelchair\"=>\"yes\""}},{"type":"Point","coordinates":[-0.1348309,51.5159744],"properties":{"osm_id":"385491685","name":null,"barrier":null,"highway":null,"ref":null,"address":null,"is_in":null,"place":null,"man_made":null,"other_tags":"\"addr:housenumber\"=>\"103A\",\"addr:street\"=>\"Oxford Street\""}},{"type":"Point","coordinates":[-0.1346914,51.5159351],"properties":{"osm_id":"385491686","name":"Harmony","barrier":null,"highway":null,"ref":null,"address":null,"is_in":null,"place":null,"man_made":null,"other_tags":"\"shop\"=>\"erotic\",\"wheelchair\"=>\"limited\""}},{"type":"Point","coordinates":[-0.1348555,51.5159856],"properties":{"osm_id":"385491687","name":null,"barrier":null,"highway":null,"ref":null,"address":null,"is_in":null,"place":null,"man_made":null,"other_tags":"\"amenity\"=>\"bicycle_parking\",\"capacity\"=>\"8\""}},{"type":"Point","coordinates":[-0.1346623,51.5161787],"properties":{"osm_id":"385491689","name":null,"barrier":null,"highway":null,"ref":null,"address":null,"is_in":null,"place":null,"man_made":null,"other_tags":"\"amenity\"=>\"telephone\""}},{"type":"Point","coordinates":[-0.1347331,51.5162716],"properties":{"osm_id":"385491690","name":null,"barrier":null,"highway":null,"ref":null,"address":null,"is_in":null,"place":null,"man_made":null,"other_tags":"\"camera\"=>\"telescope\",\"looking\"=>\"south\",\"surveillance\"=>\"public\""}},{"type":"Point","coordinates":[-0.1337922,51.5158194],"properties":{"osm_id":"385549568","name":"Subway","barrier":null,"highway":null,"ref":null,"address":null,"is_in":null,"place":null,"man_made":null,"other_tags":"\"addr:city\"=>\"London\",\"addr:housenumber\"=>\"52\",\"addr:street\"=>\"Dean Street\",\"amenity\"=>\"fast_food\",\"cuisine\"=>\"sandwich\",\"fhrs:confidence_management\"=>\"5\",\"fhrs:hygiene\"=>\"5\",\"fhrs:id\"=>\"412879\",\"fhrs:local_authority_id\"=>\"00953/0052/0/002\",\"fhrs:rating\"=>\"4\",\"fhrs:structural\"=>\"10\",\"postal_code\"=>\"W1D 5BJ\",\"source:addr\"=>\"FSA Food Hygiene Ratings Database\",\"source:postcode\"=>\"FSA Food Hygiene Ratings Database\",\"wheelchair\"=>\"limited\""}},{"type":"Point","coordinates":[-0.1349412,51.5162931],"properties":{"osm_id":"385549569","name":null,"barrier":null,"highway":null,"ref":null,"address":null,"is_in":null,"place":null,"man_made":null,"other_tags":"\"addr:housenumber\"=>\"93\",\"addr:street\"=>\"Newman Street\""}},{"type":"Point","coordinates":[-0.1351642,51.5166493],"properties":{"osm_id":"385549571","name":null,"barrier":null,"highway":null,"ref":null,"address":null,"is_in":null,"place":null,"man_made":null,"other_tags":"\"addr:housenumber\"=>\"87-91\",\"addr:street\"=>\"Newman Street\""}},{"type":"Point","coordinates":[-0.1351467,51.5166796],"properties":{"osm_id":"385549572","name":null,"barrier":null,"highway":null,"ref":null,"address":null,"is_in":null,"place":null,"man_made":null,"other_tags":"\"camera\"=>\"wall_dome\",\"surveillance\"=>\"public\""}},{"type":"Point","coordinates":[-0.1350032,51.5166209],"properties":{"osm_id":"385549573","name":null,"barrier":null,"highway":null,"ref":null,"address":null,"is_in":null,"place":null,"man_made":null,"other_tags":"\"amenity\"=>\"motorcycle_parking\""}},{"type":"Point","coordinates":[-0.1352415,51.5168001],"properties":{"osm_id":"385549574","name":"Dependent Broadcast","barrier":null,"highway":null,"ref":null,"address":null,"is_in":null,"place":null,"man_made":null,"other_tags":"\"addr:housenumber\"=>\"84\",\"addr:street\"=>\"Newman Street\",\"amenity\"=>\"business\""}},{"type":"Point","coordinates":[-0.1343233,51.5161254],"properties":{"osm_id":"385549576","name":null,"barrier":null,"highway":null,"ref":null,"address":null,"is_in":null,"place":null,"man_made":null,"other_tags":"\"amenity\"=>\"telephone\""}},{"type":"Point","coordinates":[-0.1334701,51.5101852],"properties":{"osm_id":"385554763","name":null,"barrier":null,"highway":null,"ref":null,"address":null,"is_in":null,"place":null,"man_made":"surveillance","other_tags":"\"camera:type\"=>\"dome\",\"surveillance\"=>\"outdoor\",\"surveillance:type\"=>\"camera\""}},{"type":"Point","coordinates":[-0.1344066,51.5161217],"properties":{"osm_id":"385562674","name":null,"barrier":null,"highway":null,"ref":null,"address":null,"is_in":null,"place":null,"man_made":null,"other_tags":"\"amenity\"=>\"telephone\""}},{"type":"Point","coordinates":[-0.1337726,51.5162662],"properties":{"osm_id":"385562687","name":null,"barrier":"gate","highway":null,"ref":null,"address":null,"is_in":null,"place":null,"man_made":null,"other_tags":"\"access\"=>\"no\""}},{"type":"Point","coordinates":[-0.1336904,51.5162714],"properties":{"osm_id":"385562688","name":"Simit Sarayi","barrier":null,"highway":null,"ref":null,"address":null,"is_in":null,"place":null,"man_made":null,"other_tags":"\"addr:housenumber\"=>\"68\",\"addr:postcode\"=>\"W1D 1BN\",\"addr:street\"=>\"Oxford Street\",\"cuisine\"=>\"sandwich\",\"description\"=>\"Simit Sarayi sell traditional Turkish pretzels and bakery produce in stores across 25 countries.\",\"phone\"=>\"+44 20 7636 4636\",\"shop\"=>\"bakery\",\"website\"=>\"https://www.simitsarayi.com/en\",\"wheelchair\"=>\"yes\""}},{"type":"Point","coordinates":[-0.1335597,51.5162871],"properties":{"osm_id":"385562690","name":"The Body Shop","barrier":null,"highway":null,"ref":null,"address":null,"is_in":null,"place":null,"man_made":null,"other_tags":"\"addr:housenumber\"=>\"66\",\"addr:street\"=>\"Oxford Street\",\"phone\"=>\"+44 20 7323 2183\",\"shop\"=>\"cosmetics\",\"website\"=>\"http://www.thebodyshop.co.uk\""}},{"type":"Point","coordinates":[-0.1332403,51.5163229],"properties":{"osm_id":"385563574","name":"Wasabi","barrier":null,"highway":null,"ref":null,"address":null,"is_in":null,"place":null,"man_made":null,"other_tags":"\"addr:city\"=>\"London\",\"addr:housenumber\"=>\"58\",\"addr:street\"=>\"Oxford Street\",\"amenity\"=>\"fast_food\",\"cuisine\"=>\"japanese\",\"fhrs:confidence_management\"=>\"10\",\"fhrs:hygiene\"=>\"5\",\"fhrs:id\"=>\"411010\",\"fhrs:local_authority_id\"=>\"00159/0058/0/000\",\"fhrs:rating\"=>\"2\",\"fhrs:structural\"=>\"15\",\"postal_code\"=>\"W1D 1BH\",\"source:addr\"=>\"FSA Food Hygiene Ratings Database\",\"source:postcode\"=>\"FSA Food Hygiene Ratings Database\""}},{"type":"Point","coordinates":[-0.1330813,51.5163485],"properties":{"osm_id":"385564233","name":"Russell & Bromley","barrier":null,"highway":null,"ref":null,"address":null,"is_in":null,"place":null,"man_made":null,"other_tags":"\"addr:city\"=>\"London\",\"addr:housenumber\"=>\"54-56\",\"addr:postcode\"=>\"W1D 1BQ\",\"addr:street\"=>\"Oxford Street\",\"cuisine\"=>\"sandwich\",\"fhrs:confidence_management\"=>\"5\",\"fhrs:hygiene\"=>\"5\",\"fhrs:id\"=>\"427730\",\"fhrs:local_authority_id\"=>\"00159/0054/0/000\",\"fhrs:rating\"=>\"5\",\"fhrs:structural\"=>\"5\",\"internet_access\"=>\"yes\",\"outdoor_seating\"=>\"no\",\"payment:american_express\"=>\"yes\",\"phone\"=>\"+44 20 8290 2642\",\"postal_code\"=>\"W1D 1BH\",\"shop\"=>\"shoes\",\"smoking\"=>\"no\",\"source:addr\"=>\"FSA Food Hygiene Ratings Database\",\"source:postcode\"=>\"FSA Food Hygiene Ratings Database\",\"takeaway\"=>\"yes\",\"website\"=>\"http://www.russellandbromley.co.uk/\",\"wheelchair\"=>\"yes\""}},{"type":"Point","coordinates":[-0.1325724,51.5161144],"properties":{"osm_id":"385564235","name":"UK College of English","barrier":null,"highway":null,"ref":null,"address":null,"is_in":null,"place":null,"man_made":null,"other_tags":"\"addr:housenumber\"=>\"1-2\",\"addr:street\"=>\"Soho Street\",\"amenity\"=>\"college\",\"layer\"=>\"1\",\"phone\"=>\"+44 2072878188\",\"postal_code\"=>\"W1D 3GN\",\"website\"=>\"http://www.edenhouse.co.uk\",\"wheelchair\"=>\"yes\""}},{"type":"Point","coordinates":[-0.1326779,51.5165329],"properties":{"osm_id":"385564475","name":"Bradley's Spanish Bar","barrier":null,"highway":null,"ref":null,"address":null,"is_in":null,"place":null,"man_made":null,"other_tags":"\"amenity\"=>\"pub\""}},{"type":"Point","coordinates":[-0.1324903,51.5162013],"properties":{"osm_id":"385565234","name":"Eynsford College","barrier":null,"highway":null,"ref":null,"address":null,"is_in":null,"place":null,"man_made":null,"other_tags":"\"amenity\"=>\"clock\""}},{"type":"Point","coordinates":[-0.1322118,51.5161492],"properties":{"osm_id":"385567438","name":"Scott's College","barrier":null,"highway":null,"ref":null,"address":null,"is_in":null,"place":null,"man_made":null,"other_tags":"\"addr:housenumber\"=>\"47, 49\",\"addr:street\"=>\"Oxford Street\",\"amenity\"=>\"college\""}},{"type":"Point","coordinates":[-0.1320871,51.5161637],"properties":{"osm_id":"385567440","name":"Rose of York Language School","barrier":null,"highway":null,"ref":null,"address":null,"is_in":null,"place":null,"man_made":null,"other_tags":"\"amenity\"=>\"school\",\"phone\"=>\"+44 2077340007\",\"website\"=>\"www.wilsoncollege.co.uk\",\"wheelchair\"=>\"no\""}},{"type":"Point","coordinates":[-0.1317198,51.5163872],"properties":{"osm_id":"385581973","name":"Tottenham Court Road Station","barrier":null,"highway":"bus_stop","ref":"77103","address":null,"is_in":null,"place":null,"man_made":null,"other_tags":"\"local_ref\"=>\"V\",\"public_transport\"=>\"platform\""}},{"type":"Point","coordinates":[-0.131556,51.5161996],"properties":{"osm_id":"385582719","name":"Fairstaff","barrier":null,"highway":null,"ref":null,"address":null,"is_in":null,"place":null,"man_made":null,"other_tags":"\"amenity\"=>\"employment_agency\",\"layer\"=>\"1\",\"phone\"=>\"+44 2074392051\""}},{"type":"Point","coordinates":[-0.1309882,51.5164785],"properties":{"osm_id":"385591324","name":"Boost Juice Bar","barrier":null,"highway":null,"ref":null,"address":null,"is_in":null,"place":null,"man_made":null,"other_tags":"\"addr:housenumber\"=>\"12\",\"addr:street\"=>\"Oxford Street\",\"amenity\"=>\"bar\",\"fhrs:confidence_management\"=>\"0\",\"fhrs:hygiene\"=>\"0\",\"fhrs:id\"=>\"411000\",\"fhrs:local_authority_id\"=>\"00159/0012/0/000\",\"fhrs:rating\"=>\"5\",\"fhrs:structural\"=>\"0\",\"opening_hours\"=>\"Mo-Fr 07:00-22:00, Sa 09:00-21:00, Su 10:00-21:00\",\"phone\"=>\"+44 20 7637 9922\",\"postal_code\"=>\"W1D 1AP\",\"shop\"=>\"yes\",\"website\"=>\"http://www.boostjuicebars.co.uk\""}},{"type":"Point","coordinates":[-0.1308683,51.5164921],"properties":{"osm_id":"385591326","name":"McDonald's","barrier":null,"highway":null,"ref":null,"address":null,"is_in":null,"place":null,"man_made":null,"other_tags":"\"addr:housenumber\"=>\"8-10\",\"addr:street\"=>\"Oxford Street\",\"amenity\"=>\"fast_food\",\"cuisine\"=>\"burger\",\"opening_hours\"=>\"Mo-Su 05:00-02:45\",\"website\"=>\"http://www.mcdonalds.co.uk/\",\"wheelchair\"=>\"yes\""}},{"type":"Point","coordinates":[-0.1325706,51.5160698],"properties":{"osm_id":"385591648","name":"Office Angels","barrier":null,"highway":null,"ref":null,"address":null,"is_in":null,"place":null,"man_made":null,"other_tags":"\"amenity\"=>\"employment_agency\",\"layer\"=>\"1\",\"phone\"=>\"+44 2074392051\""}},{"type":"Point","coordinates":[-0.1327632,51.5161559],"properties":{"osm_id":"385591649","name":null,"barrier":null,"highway":null,"ref":null,"address":null,"is_in":null,"place":null,"man_made":"surveillance","other_tags":"\"camera:type\"=>\"dome\",\"surveillance\"=>\"public\""}},{"type":"Point","coordinates":[-0.1331054,51.5163934],"properties":{"osm_id":"385591650","name":null,"barrier":null,"highway":null,"ref":null,"address":null,"is_in":null,"place":null,"man_made":null,"other_tags":"\"looking\"=>\"south\",\"operator\"=>\"Eurotech\",\"surveillance\"=>\"outdoor\""}},{"type":"Point","coordinates":[-0.1335578,51.5155458],"properties":{"osm_id":"385592206","name":"Tesco Metro","barrier":null,"highway":null,"ref":null,"address":null,"is_in":null,"place":null,"man_made":null,"other_tags":"\"addr:city\"=>\"London\",\"addr:housenumber\"=>\"2-4\",\"addr:postcode\"=>\"W1D 3RG\",\"addr:street\"=>\"Dean Street\",\"fhrs:confidence_management\"=>\"5\",\"fhrs:hygiene\"=>\"5\",\"fhrs:id\"=>\"427976\",\"fhrs:local_authority_id\"=>\"00953/0002/0/001\",\"fhrs:rating\"=>\"5\",\"fhrs:structural\"=>\"5\",\"opening_hours\"=>\"Mo-Fr 06:00-23:00; Sa 06:00-22:00; Su 12:00-18:00\",\"payment:american_express\"=>\"yes\",\"shop\"=>\"convenience\",\"source:postcode\"=>\"FSA Food Hygiene Ratings Database\""}},{"type":"Point","coordinates":[-0.1346367,51.5160622],"properties":{"osm_id":"385592516","name":null,"barrier":null,"highway":null,"ref":null,"address":null,"is_in":null,"place":null,"man_made":null,"other_tags":"\"camera\"=>\"telescope\",\"looking\"=>\"east\",\"surveillance\"=>\"public\""}},{"type":"Point","coordinates":[-0.1289335,51.5167167],"properties":{"osm_id":"388116718","name":"All Bar One","barrier":null,"highway":null,"ref":null,"address":null,"is_in":null,"place":null,"man_made":null,"other_tags":"\"amenity\"=>\"pub\""}},{"type":"Point","coordinates":[-0.129274,51.516674],"properties":{"osm_id":"388116719","name":"Starbucks Coffee","barrier":null,"highway":null,"ref":null,"address":null,"is_in":null,"place":null,"man_made":null,"other_tags":"\"amenity\"=>\"cafe\",\"payment:american_express\"=>\"yes\",\"wheelchair\"=>\"limited\""}},{"type":"Point","coordinates":[-0.128267,51.5120174],"properties":{"osm_id":"401529121","name":"Hardys Original Sweetshop","barrier":null,"highway":null,"ref":null,"address":null,"is_in":null,"place":null,"man_made":null,"other_tags":"\"addr:housenumber\"=>\"50\",\"shop\"=>\"confectionery\""}},{"type":"Point","coordinates":[-0.1282777,51.5120741],"properties":{"osm_id":"401529123","name":"Splash","barrier":null,"highway":null,"ref":null,"address":null,"is_in":null,"place":null,"man_made":null,"other_tags":"\"sex\"=>\"unisex\",\"shop\"=>\"hairdresser\""}},{"type":"Point","coordinates":[-0.1283807,51.5123041],"properties":{"osm_id":"401529124","name":"Cafe Vergnano 1882","barrier":null,"highway":null,"ref":null,"address":null,"is_in":null,"place":null,"man_made":null,"other_tags":"\"addr:city\"=>\"London\",\"addr:housenumber\"=>\"62\",\"addr:postcode\"=>\"WC2H 0BU\",\"addr:street\"=>\"Charing Cross Road\",\"amenity\"=>\"cafe\",\"internet_access\"=>\"wlan\",\"internet_access:fee\"=>\"no\",\"internet_access:ssid\"=>\"1882charingcross\",\"website\"=>\"http://caffevergnano1882.co.uk/charing-cross-road\""}},{"type":"Point","coordinates":[-0.1285003,51.5125448],"properties":{"osm_id":"401529125","name":"Quinto Bookshop","barrier":null,"highway":null,"ref":null,"address":null,"is_in":null,"place":null,"man_made":null,"other_tags":"\"books\"=>\"antiquarian\",\"shop\"=>\"books\",\"website\"=>\"http://quintobookshop.co.uk/\""}},{"type":"Point","coordinates":[-0.1286031,51.5127283],"properties":{"osm_id":"401529127","name":"Koenig Books","barrier":null,"highway":null,"ref":null,"address":null,"is_in":null,"place":null,"man_made":null,"other_tags":"\"phone\"=>\"+44 20 7240 8190\",\"postal_code\"=>\"WC2H 0BF\",\"shop\"=>\"books\""}},{"type":"Point","coordinates":[-0.1285413,51.5126071],"properties":{"osm_id":"401529128","name":"Andy & Tuly","barrier":null,"highway":null,"ref":null,"address":null,"is_in":null,"place":null,"man_made":null,"other_tags":"\"addr:housenumber\"=>\"74\",\"shop\"=>\"clothes\""}},{"type":"Point","coordinates":[-0.1285727,51.5126683],"properties":{"osm_id":"401529129","name":"A Child Of The Jago","barrier":null,"highway":null,"ref":null,"address":null,"is_in":null,"place":null,"man_made":null,"other_tags":"\"shop\"=>\"clothes\""}},{"type":"Point","coordinates":[-0.1284212,51.5123653],"properties":{"osm_id":"401529130","name":"Everwell Chinese Medical Centre","barrier":null,"highway":null,"ref":null,"address":null,"is_in":null,"place":null,"man_made":null,"other_tags":"\"addr:city\"=>\"London\",\"addr:housenumber\"=>\"14\",\"addr:street\"=>\"Charing Cross Road\",\"fhrs:confidence_management\"=>\"10\",\"fhrs:hygiene\"=>\"0\",\"fhrs:id\"=>\"412008\",\"fhrs:local_authority_id\"=>\"00626/0014/0/000\",\"fhrs:rating\"=>\"4\",\"fhrs:structural\"=>\"0\",\"office\"=>\"physician\",\"postal_code\"=>\"WC2H 0HR\",\"source:addr\"=>\"FSA Food Hygiene Ratings Database\",\"source:postcode\"=>\"FSA Food Hygiene Ratings Database\""}},{"type":"Point","coordinates":[-0.1284393,51.5124232],"properties":{"osm_id":"401529131","name":"Strange","barrier":null,"highway":null,"ref":null,"address":null,"is_in":null,"place":null,"man_made":null,"other_tags":"\"clothes\"=>\"goth_accessories\",\"shop\"=>\"clothes\""}},{"type":"Point","coordinates":[-0.1282985,51.5121161],"properties":{"osm_id":"401529132","name":"Any amount of books","barrier":null,"highway":null,"ref":null,"address":null,"is_in":null,"place":null,"man_made":null,"other_tags":"\"books\"=>\"antiquarian\",\"shop\"=>\"books\",\"website\"=>\"http://www.anyamountofbooks.com/\""}},{"type":"Point","coordinates":[-0.128347,51.5122231],"properties":{"osm_id":"401529133","name":"Henry Pordes Books","barrier":null,"highway":null,"ref":null,"address":null,"is_in":null,"place":null,"man_made":null,"other_tags":"\"addr:housenumber\"=>\"58-60\",\"books\"=>\"antiquarian\",\"payment:american_express\"=>\"yes\",\"shop\"=>\"books\",\"twitter\"=>\"HenryPordesBook\",\"website\"=>\"http://www.henrypordesbooks.com/\""}},{"type":"Point","coordinates":[-0.1286535,51.5128846],"properties":{"osm_id":"401529136","name":"Subway","barrier":null,"highway":null,"ref":null,"address":null,"is_in":null,"place":null,"man_made":null,"other_tags":"\"amenity\"=>\"fast_food\",\"cuisine\"=>\"sandwich\",\"payment:american_express\"=>\"no\",\"wheelchair\"=>\"no\""}},{"type":"Point","coordinates":[-0.128925,51.5127891],"properties":{"osm_id":"401529137","name":null,"barrier":null,"highway":null,"ref":null,"address":null,"is_in":null,"place":null,"man_made":null,"other_tags":"\"amenity\"=>\"telephone\",\"booth\"=>\"K6\",\"colour\"=>\"black\",\"operator\"=>\"Arqiva\""}},{"type":"Point","coordinates":[-0.1288194,51.5129844],"properties":{"osm_id":"401529138","name":null,"barrier":null,"highway":null,"ref":null,"address":null,"is_in":null,"place":null,"man_made":null,"other_tags":"\"addr:housenumber\"=>\"82\""}},{"type":"Point","coordinates":[-0.1291025,51.5128622],"properties":{"osm_id":"401529139","name":"Walkabout","barrier":null,"highway":null,"ref":null,"address":null,"is_in":null,"place":null,"man_made":null,"other_tags":"\"amenity\"=>\"pub\",\"food\"=>\"yes\""}},{"type":"Point","coordinates":[-0.1291018,51.5130031],"properties":{"osm_id":"401529141","name":null,"barrier":null,"highway":null,"ref":null,"address":null,"is_in":null,"place":null,"man_made":null,"other_tags":"\"amenity\"=>\"atm\",\"operator\"=>\"HSBC\""}},{"type":"Point","coordinates":[-0.128808,51.513179],"properties":{"osm_id":"401529142","name":"Shake Shack","barrier":null,"highway":null,"ref":null,"address":null,"is_in":null,"place":null,"man_made":null,"other_tags":"\"addr:housenumber\"=>\"1\",\"addr:postcode\"=>\"WC2H 8PA\",\"addr:street\"=>\"Cambridge Circus\",\"amenity\"=>\"fast_food\",\"outdoor_seating\"=>\"no\",\"wheelchair\"=>\"limited\""}},{"type":"Point","coordinates":[-0.1291833,51.5137033],"properties":{"osm_id":"401529144","name":"doubleticket.com","barrier":null,"highway":null,"ref":null,"address":null,"is_in":null,"place":null,"man_made":null,"other_tags":"\"addr:housenumber\"=>\"88\",\"shop\"=>\"ticket\""}},{"type":"Point","coordinates":[-0.1292027,51.5137401],"properties":{"osm_id":"401529145","name":null,"barrier":null,"highway":null,"ref":null,"address":null,"is_in":null,"place":null,"man_made":null,"other_tags":"\"addr:housenumber\"=>\"90\""}},{"type":"Point","coordinates":[-0.1292936,51.5140094],"properties":{"osm_id":"401529148","name":"Salsa!","barrier":null,"highway":null,"ref":null,"address":null,"is_in":null,"place":null,"man_made":null,"other_tags":"\"amenity\"=>\"restaurant\",\"bar\"=>\"yes\",\"cuisine\"=>\"spanish\""}},{"type":"Point","coordinates":[-0.1294613,51.5143282],"properties":{"osm_id":"401529156","name":"Kiera corner","barrier":null,"highway":null,"ref":null,"address":null,"is_in":null,"place":null,"man_made":null,"other_tags":"\"addr:housenumber\"=>\"104\",\"shop\"=>\"newsagent\",\"wheelchair\"=>\"no\""}},{"type":"Point","coordinates":[-0.1294674,51.5143608],"properties":{"osm_id":"401529157","name":"Snack Bar & Café","barrier":null,"highway":null,"ref":null,"address":null,"is_in":null,"place":null,"man_made":null,"other_tags":"\"addr:housenumber\"=>\"106\",\"amenity\"=>\"cafe\",\"cuisine\"=>\"sandwich\",\"outdoor_seating\"=>\"yes\",\"wheelchair\"=>\"no\""}},{"type":"Point","coordinates":[-0.1296503,51.5148933],"properties":{"osm_id":"401529159","name":"TK-Maxx","barrier":null,"highway":null,"ref":null,"address":null,"is_in":null,"place":null,"man_made":null,"other_tags":"\"addr:housenumber\"=>\"124\",\"shop\"=>\"clothes\",\"wheelchair\"=>\"yes\""}},{"type":"Point","coordinates":[-0.1298942,51.5152059],"properties":{"osm_id":"401529161","name":"Rock Shop","barrier":null,"highway":null,"ref":null,"address":null,"is_in":null,"place":null,"man_made":null,"other_tags":"\"addr:housenumber\"=>\"128\",\"shop\"=>\"musical_instrument\""}},{"type":"Point","coordinates":[-0.1299113,51.5152695],"properties":{"osm_id":"401529162","name":"Kiera","barrier":null,"highway":null,"ref":null,"address":null,"is_in":null,"place":null,"man_made":null,"other_tags":"\"cuisine\"=>\"waffle\",\"shop\"=>\"newsagent\""}},{"type":"Point","coordinates":[-0.1299342,51.5153034],"properties":{"osm_id":"401529163","name":"Mucci Bags","barrier":null,"highway":null,"ref":null,"address":null,"is_in":null,"place":null,"man_made":null,"other_tags":"\"addr:housenumber\"=>\"134\",\"shop\"=>\"bag\""}},{"type":"Point","coordinates":[-0.129956,51.5153476],"properties":{"osm_id":"401529164","name":"Apricot","barrier":null,"highway":null,"ref":null,"address":null,"is_in":null,"place":null,"man_made":null,"other_tags":"\"addr:city\"=>\"London\",\"addr:housenumber\"=>\"136\",\"addr:postcode\"=>\"WC2H 0LA\",\"addr:street\"=>\"Charing Cross Road\",\"amenity\"=>\"restaurant\",\"type\"=>\"bags\""}},{"type":"Point","coordinates":[-0.1398144,51.5167875],"properties":{"osm_id":"411545972","name":null,"barrier":null,"highway":"crossing","ref":null,"address":null,"is_in":null,"place":null,"man_made":null,"other_tags":"\"crossing\"=>\"uncontrolled\",\"crossing_ref\"=>\"zebra\""}},{"type":"Point","coordinates":[-0.1301905,51.5152384],"properties":{"osm_id":"414574850","name":null,"barrier":null,"highway":null,"ref":"WC2 51","address":null,"is_in":null,"place":null,"man_made":null,"other_tags":"\"amenity\"=>\"post_box\""}},{"type":"Point","coordinates":[-0.1366452,51.5103873],"properties":{"osm_id":"431435487","name":null,"barrier":null,"highway":null,"ref":"W1 109","address":null,"is_in":null,"place":null,"man_made":null,"other_tags":"\"amenity\"=>\"post_box\""}},{"type":"Point","coordinates":[-0.1387177,51.5111356],"properties":{"osm_id":"431435494","name":null,"barrier":null,"highway":null,"ref":"W1 104","address":null,"is_in":null,"place":null,"man_made":null,"other_tags":"\"amenity\"=>\"post_box\",\"post_box:design\"=>\"type_c\",\"post_box:type\"=>\"pillar\",\"royal_cypher\"=>\"EIIR\""}},{"type":"Point","coordinates":[-0.1326509,51.5157962],"properties":{"osm_id":"447872928","name":"Govinda's","barrier":null,"highway":null,"ref":null,"address":null,"is_in":null,"place":null,"man_made":null,"other_tags":"\"addr:city\"=>\"London\",\"addr:housenumber\"=>\"10\",\"addr:postcode\"=>\"W1D 3DL\",\"addr:street\"=>\"Soho St.\",\"amenity\"=>\"restaurant\",\"cuisine\"=>\"indian\",\"diet:vegan\"=>\"yes\",\"diet:vegetarian\"=>\"only\",\"fhrs:confidence_management\"=>\"10\",\"fhrs:hygiene\"=>\"10\",\"fhrs:id\"=>\"413032\",\"fhrs:local_authority_id\"=>\"01019/0010/0/000\",\"fhrs:rating\"=>\"3\",\"fhrs:structural\"=>\"10\",\"postal_code\"=>\"W1D 3DL\",\"source:postcode\"=>\"FSA Food Hygiene Ratings Database\""}},{"type":"Point","coordinates":[-0.1313828,51.5150132],"properties":{"osm_id":"447873256","name":null,"barrier":null,"highway":null,"ref":"W1 98","address":null,"is_in":null,"place":null,"man_made":null,"other_tags":"\"amenity\"=>\"post_box\",\"collection_times\"=>\"Mo-Fr 18:30; Sa 12:00\",\"collection_times_checked\"=>\"2015-09-24\",\"operator\"=>\"Royal Mail\",\"post_box:apertures\"=>\"2\",\"post_box:type\"=>\"pillar\",\"royal_cypher\"=>\"EIIR\""}},{"type":"Point","coordinates":[-0.1318334,51.514853],"properties":{"osm_id":"447873335","name":null,"barrier":null,"highway":null,"ref":null,"address":null,"is_in":null,"place":null,"man_made":null,"other_tags":"\"amenity\"=>\"bicycle_parking\",\"capacity\"=>\"14\",\"covered\"=>\"no\""}},{"type":"Point","coordinates":[-0.1313882,51.5142259],"properties":{"osm_id":"447874258","name":"La Capannina","barrier":null,"highway":null,"ref":null,"address":null,"is_in":null,"place":null,"man_made":null,"other_tags":"\"amenity\"=>\"stripclub\",\"website\"=>\"http://www.lacapannina.co.uk/\""}},{"type":"Point","coordinates":[-0.129745,51.5138327],"properties":{"osm_id":"447875724","name":"Melanie","barrier":null,"highway":null,"ref":null,"address":null,"is_in":null,"place":null,"man_made":null,"other_tags":"\"addr:city\"=>\"London\",\"addr:housenumber\"=>\"4-6\",\"addr:street\"=>\"Old Compton Street\",\"amenity\"=>\"restaurant\",\"cuisine\"=>\"italian\",\"fhrs:confidence_management\"=>\"10\",\"fhrs:hygiene\"=>\"10\",\"fhrs:id\"=>\"412509\",\"fhrs:local_authority_id\"=>\"00859/0004/0/001\",\"fhrs:rating\"=>\"2\",\"fhrs:structural\"=>\"15\",\"phone\"=>\"+44 20 7437 4006\",\"postal_code\"=>\"W1D 4TB\",\"website\"=>\"http://www.melanieitalianrestaurant.co.uk/\""}},{"type":"Point","coordinates":[-0.1293308,51.513966],"properties":{"osm_id":"447875797","name":null,"barrier":null,"highway":null,"ref":null,"address":null,"is_in":null,"place":null,"man_made":null,"other_tags":"\"amenity\"=>\"telephone\""}},{"type":"Point","coordinates":[-0.1296917,51.5141245],"properties":{"osm_id":"447876523","name":null,"barrier":null,"highway":null,"ref":null,"address":null,"is_in":null,"place":null,"man_made":null,"other_tags":"\"amenity\"=>\"telephone\""}},{"type":"Point","coordinates":[-0.141668,51.513906],"properties":{"osm_id":"452214758","name":null,"barrier":null,"highway":null,"ref":"W1B 91;W1B 291","address":null,"is_in":null,"place":null,"man_made":null,"other_tags":"\"amenity\"=>\"post_box\",\"collection_times\"=>\"Mo-Fr 18:30; Sa 12:00\",\"post_box:apertures\"=>\"2\",\"post_box:design\"=>\"type_c\",\"post_box:type\"=>\"pillar\",\"royal_cypher\"=>\"EIIR\""}},{"type":"Point","coordinates":[-0.1398487,51.5101426],"properties":{"osm_id":"452215440","name":null,"barrier":null,"highway":null,"ref":"W1 94","address":null,"is_in":null,"place":null,"man_made":null,"other_tags":"\"amenity\"=>\"post_box\",\"operator\"=>\"Royal Mail\",\"post_box:apertures\"=>\"2\",\"post_box:design\"=>\"type_c\",\"post_box:type\"=>\"pillar\""}},{"type":"Point","coordinates":[-0.1416141,51.5098442],"properties":{"osm_id":"452215442","name":null,"barrier":null,"highway":null,"ref":"W1S 92;W1S 292","address":null,"is_in":null,"place":null,"man_made":null,"other_tags":"\"amenity\"=>\"post_box\",\"collection_times\"=>\"Mo-Fr 18:30; Sa 12:00\",\"disused\"=>\"yes\",\"operator\"=>\"Royal Mail\",\"post_box:apertures\"=>\"2\",\"post_box:manufacturer\"=>\"Carron Company, Stirlingshire\",\"post_box:type\"=>\"pillar\",\"royal_cypher\"=>\"EIIR\""}},{"type":"Point","coordinates":[-0.1398283,51.510031],"properties":{"osm_id":"452215445","name":null,"barrier":null,"highway":null,"ref":null,"address":null,"is_in":null,"place":null,"man_made":null,"other_tags":"\"amenity\"=>\"telephone\",\"booth\"=>\"K6\",\"covered\"=>\"booth\",\"operator\"=>\"BT\""}},{"type":"Point","coordinates":[-0.137866,51.5100571],"properties":{"osm_id":"452215459","name":null,"barrier":null,"highway":null,"ref":"W1 96","address":null,"is_in":null,"place":null,"man_made":null,"other_tags":"\"amenity\"=>\"post_box\",\"operator\"=>\"Royal Mail\",\"post_box:apertures\"=>\"1\",\"post_box:type\"=>\"pillar\",\"royal_cypher\"=>\"EIIR\""}},{"type":"Point","coordinates":[-0.1376134,51.510566],"properties":{"osm_id":"452215462","name":"The Leicester Arms","barrier":null,"highway":null,"ref":null,"address":null,"is_in":null,"place":null,"man_made":null,"other_tags":"\"addr:housenumber\"=>\"44\",\"addr:street\"=>\"Glasshouse Street\",\"amenity\"=>\"pub\",\"brewery\"=>\"Foster's;Crossbow;London Pride\",\"smoking\"=>\"no\",\"toilets\"=>\"yes\",\"toilets:access\"=>\"customers\",\"wheelchair\"=>\"no\""}},{"type":"Point","coordinates":[-0.1375789,51.5095524],"properties":{"osm_id":"452215489","name":null,"barrier":"bollard","highway":null,"ref":null,"address":null,"is_in":null,"place":null,"man_made":null,"other_tags":null}},{"type":"Point","coordinates":[-0.1412329,51.5126003],"properties":{"osm_id":"452225490","name":"Royal Bank of Scotland","barrier":null,"highway":null,"ref":null,"address":null,"is_in":null,"place":null,"man_made":null,"other_tags":"\"addr:city\"=>\"London\",\"addr:housenumber\"=>\"60\",\"addr:postcode\"=>\"W1\",\"addr:street\"=>\"Conduit Street\",\"amenity\"=>\"bank\""}},{"type":"Point","coordinates":[-0.1414978,51.5134245],"properties":{"osm_id":"452239272","name":"Patara - Oxford Circus","barrier":null,"highway":null,"ref":null,"address":null,"is_in":null,"place":null,"man_made":null,"other_tags":"\"addr:housenumber\"=>\"3-7\",\"addr:postcode\"=>\"W1S 2QB\",\"addr:street\"=>\"Maddox Street\",\"amenity\"=>\"restaurant\",\"cuisine\"=>\"thai\""}},{"type":"Point","coordinates":[-0.1417203,51.5135007],"properties":{"osm_id":"452239275","name":"Subway","barrier":null,"highway":null,"ref":null,"address":null,"is_in":null,"place":null,"man_made":null,"other_tags":"\"addr:city\"=>\"London\",\"addr:housenumber\"=>\"10\",\"addr:street\"=>\"Maddox Street\",\"amenity\"=>\"fast_food\",\"cuisine\"=>\"sandwich\",\"fhrs:confidence_management\"=>\"5\",\"fhrs:hygiene\"=>\"5\",\"fhrs:id\"=>\"427701\",\"fhrs:local_authority_id\"=>\"00115/0010/0/001\",\"fhrs:rating\"=>\"4\",\"fhrs:structural\"=>\"10\",\"postal_code\"=>\"W1S 1PF\",\"source:addr\"=>\"FSA Food Hygiene Ratings Database\",\"source:postcode\"=>\"FSA Food Hygiene Ratings Database\""}},{"type":"Point","coordinates":[-0.1418994,51.5137817],"properties":{"osm_id":"452239369","name":"Pret A Manger","barrier":null,"highway":null,"ref":null,"address":null,"is_in":null,"place":null,"man_made":null,"other_tags":"\"addr:city\"=>\"London\",\"addr:housenumber\"=>\"18\",\"addr:street\"=>\"Hanover Street\",\"amenity\"=>\"cafe\",\"fhrs:confidence_management\"=>\"0\",\"fhrs:hygiene\"=>\"0\",\"fhrs:id\"=>\"427789\",\"fhrs:local_authority_id\"=>\"00435/0018/0/001\",\"fhrs:rating\"=>\"5\",\"fhrs:structural\"=>\"5\",\"payment:american_express\"=>\"yes\",\"postal_code\"=>\"W1S 1YN\",\"source:addr\"=>\"FSA Food Hygiene Ratings Database\",\"source:postcode\"=>\"FSA Food Hygiene Ratings Database\""}},{"type":"Point","coordinates":[-0.1281787,51.5101124],"properties":{"osm_id":"452488845","name":null,"barrier":null,"highway":null,"ref":null,"address":null,"is_in":null,"place":null,"man_made":null,"other_tags":"\"amenity\"=>\"bicycle_parking\",\"capacity\"=>\"6\""}},{"type":"Point","coordinates":[-0.1293804,51.5133762],"properties":{"osm_id":"452489464","name":null,"barrier":null,"highway":null,"ref":null,"address":null,"is_in":null,"place":null,"man_made":null,"other_tags":"\"amenity\"=>\"bicycle_parking\",\"capacity\"=>\"8\""}},{"type":"Point","coordinates":[-0.1328431,51.5095659],"properties":{"osm_id":"452515783","name":null,"barrier":null,"highway":null,"ref":"SW1Y 54;SW1Y 154","address":null,"is_in":null,"place":null,"man_made":null,"other_tags":"\"amenity\"=>\"post_box\",\"collection_times\"=>\"Mo-Fr 18:45; Sa 11:30\",\"operator\"=>\"Royal Mail\",\"post_box:apertures\"=>\"2\",\"post_box:type\"=>\"pillar\",\"royal_cypher\"=>\"EIIR\""}},{"type":"Point","coordinates":[-0.1396041,51.5117188],"properties":{"osm_id":"452589678","name":null,"barrier":null,"highway":null,"ref":"W1 97","address":null,"is_in":null,"place":null,"man_made":null,"other_tags":"\"amenity\"=>\"post_box\",\"post_box:apertures\"=>\"2\",\"post_box:type\"=>\"pillar\",\"royal_cypher\"=>\"EIIR\""}},{"type":"Point","coordinates":[-0.1418431,51.5121644],"properties":{"osm_id":"452590043","name":null,"barrier":null,"highway":null,"ref":"W1 87","address":null,"is_in":null,"place":null,"man_made":null,"other_tags":"\"amenity\"=>\"post_box\",\"last_collection\"=>\"6.30pm, Sat 12noon\",\"operator\"=>\"Royal Mail\",\"postal_code\"=>\"W1\""}},{"type":"Point","coordinates":[-0.1414216,51.5111148],"properties":{"osm_id":"454360138","name":null,"barrier":null,"highway":null,"ref":"W1S 88;W1S 288","address":null,"is_in":null,"place":null,"man_made":null,"other_tags":"\"amenity\"=>\"post_box\",\"collection_times\"=>\"Mo-Fr 18:30; Sa 12:00\",\"operator\"=>\"Royal Mail\",\"post_box:apertures\"=>\"2\",\"post_box:design\"=>\"type_c\",\"post_box:type\"=>\"pillar\",\"royal_cypher\"=>\"EIIR\""}},{"type":"Point","coordinates":[-0.1411183,51.5126921],"properties":{"osm_id":"454361543","name":"Workplace Gallery","barrier":null,"highway":null,"ref":null,"address":null,"is_in":null,"place":null,"man_made":null,"other_tags":"\"addr:city\"=>\"London\",\"addr:housenumber\"=>\"61\",\"addr:postcode\"=>\"W1\",\"addr:street\"=>\"Conduit Street\",\"phone\"=>\"+44 207 434 1985\",\"shop\"=>\"art\",\"website\"=>\"https://www.workplacegallery.co.uk/\""}},{"type":"Point","coordinates":[-0.1410628,51.5127401],"properties":{"osm_id":"454361547","name":"Four","barrier":null,"highway":null,"ref":null,"address":null,"is_in":null,"place":null,"man_made":null,"other_tags":"\"addr:city\"=>\"London\",\"addr:housenumber\"=>\"62\",\"addr:postcode\"=>\"W1\",\"addr:street\"=>\"Conduit Street\",\"phone\"=>\"+44 20 7297 9600\",\"shop\"=>\"hairdresser\",\"website\"=>\"http://www.fourlondon.com/welcome/\""}},{"type":"Point","coordinates":[-0.1409682,51.5128167],"properties":{"osm_id":"454361550","name":"Pret A Manger","barrier":null,"highway":null,"ref":null,"address":null,"is_in":null,"place":null,"man_made":null,"other_tags":"\"addr:city\"=>\"London\",\"addr:housenumber\"=>\"63\",\"addr:postcode\"=>\"W1\",\"addr:street\"=>\"Conduit Street\",\"amenity\"=>\"fast_food\",\"payment:american_express\"=>\"yes\""}},{"type":"Point","coordinates":[-0.1419632,51.512168],"properties":{"osm_id":"454368517","name":"Conduit Street / Savile Row","barrier":null,"highway":null,"ref":null,"address":null,"is_in":null,"place":null,"man_made":null,"other_tags":"\"bus\"=>\"yes\",\"local_ref\"=>\"Q\",\"public_transport\"=>\"stop_position\""}},{"type":"Point","coordinates":[-0.1385367,51.5104368],"properties":{"osm_id":"456213920","name":null,"barrier":null,"highway":null,"ref":null,"address":null,"is_in":null,"place":null,"man_made":null,"other_tags":"\"addr:city\"=>\"London\",\"addr:housenumber\"=>\"115\",\"addr:postcode\"=>\"W1\",\"addr:street\"=>\"Regent Street\",\"old_name\"=>\"L.K. Bennett\""}},{"type":"Point","coordinates":[-0.1391473,51.5102976],"properties":{"osm_id":"456213965","name":"Starbucks Coffee","barrier":null,"highway":null,"ref":null,"address":null,"is_in":null,"place":null,"man_made":null,"other_tags":"\"addr:city\"=>\"London\",\"addr:housenumber\"=>\"6A\",\"addr:postcode\"=>\"W1\",\"addr:street\"=>\"Vigo Street\",\"amenity\"=>\"cafe\",\"operator\"=>\"Starbucks\",\"payment:american_express\"=>\"yes\""}},