{"type":"Topology","arcs":[],"objects":{"pumps":{"type":"GeometryCollection","geometries":[{"type":"Point","coordinates":[-0.134722578957896,51.516239128712876],"properties":{"id":"newman-street_2","title":"Newman Street","type":"pump"}},{"type":"Point","coordinates":[-0.135912400440044,51.516047009900994],"properties":{"id":"oxford-street-berners-street_1","title":"Oxford Street / Berners Street","type":"pump"}},{"type":"Point","coordinates":[-0.139654474647465,51.516339],"properties":{"id":"oxford-market_2","title":"Oxford Market","type":"pump"}},{"type":"Point","coordinates":[-0.139699274127413,51.51487904950495],"properties":{"id":"marlborough-mews_2","title":"Marlborough Mews","type":"pump"}},{"type":"Point","coordinates":[-0.139592545954595,51.51383688118812],"properties":{"id":"carnaby-street_2","title":"Carnaby Street","type":"pump"}},{"type":"Point","coordinates":[-0.136663450545054,51.51330093069307],"properties":{"id":"broad-street_2","title":"Broad Street","type":"pump"}},{"type":"Point","coordinates":[-0.138264373137314,51.51125166336634],"properties":{"id":"warwick-street_2","title":"Warwick Street","type":"pump"}},{"type":"Point","coordinates":[-0.139654474647465,51.510140881188114],"properties":{"id":"sackville-row-vigo-street_1","title":"Sackville Row / Vigo Street","type":"pump"}},{"type":"Point","coordinates":[-0.134070351235124,51.51003033663366],"properties":{"id":"tickborne-street_1","title":"Tickborne Street","type":"pump"}},{"type":"Point","coordinates":[-0.131660402740274,51.512279346534655],"properties":{"id":"dean-street_2","title":"Dean Street","type":"pump"}},{"type":"Point","coordinates":[-0.133619721172117,51.51205978217822],"properties":{"id":"rupert-street_2","title":"Rupert Street","type":"pump"}},{"type":"Point","coordinates":[-0.13779002570257,51.51661421782178],"properties":{"id":"castle-street-east_2","title":"Castle Street East","type":"pump"}},{"type":"Point","coordinates":[-0.135983552555256,51.51147503960396],"properties":{"id":"bridle-street_1","title":"Bridle Street","type":"pump"}}]}},"crs":{"type":"name","properties":{"name":"urn:ogc:def:crs:OGC:1.3:CRS84"}}}